stop_id,stop_name,stop_lat,stop_lon,location_type,parent_station,platform_code
9021012060002000,Billesholm Hästhovsgatan,56.062523,12.976800,1,,
9021012060003000,Billesholm Snödroppsgatan,56.065072,12.976677,1,,
9021012060006000,Vrams Gunnarstorp,56.101338,12.969305,1,,
9021012060007000,Billesholm Nybrodal,56.070853,12.964334,1,,
9021012060008000,Billesholm Ljungsgårdsvägen,56.071545,12.960042,1,,
9021012060009000,Lunnahus,56.073183,12.953157,1,,
9021012060010000,Bjuv Findus,56.075695,12.942513,1,,
9021012060011000,Bjuv Glimmergatan,56.084160,12.890010,1,,
9021012060012000,Bjuv Selleberga,56.079024,12.930745,1,,
9021012060013000,Bjuv Varagården,56.081598,12.924752,1,,
9021012060014000,Bjuv Gruvgatan,56.083247,12.919969,1,,
9021012060015000,Ekeby Skola,55.996997,12.973848,1,,
9021012060016000,Bjuv Norra vägen,56.089679,12.910294,1,,
9021012060017000,Bjuv Rubingatan,56.086799,12.902057,1,,
9021012060018000,Bjuv Sjukhusvägen,56.084475,12.896093,1,,
9021012060023000,Brogårda,56.096494,12.890251,1,,
9021012060025000,Bjuv Orkestergatan,56.092071,12.905774,1,,
9021012060026000,Bjuv Höstgatan,56.090128,12.917557,1,,
9021012060031000,Bjuv Köpcentrum,56.087000,12.914449,1,,
9021012060056000,Ekeby Flamman,55.992159,12.972904,1,,
9021012060064000,Ekeby Missionsgatan,56.002937,12.967272,1,,
9021012060090000,Bjuvs station,56.083496,12.912574,1,,
9021012950120000,Bjuv NO 2 väst,56.051942,12.923031,1,,
9021012950121000,Bjuv NO 2 öst,56.019952,13.004814,1,,
9021012950122000,Bjuv NO 3,55.987093,12.939597,1,,
9021012950125000,Bjuv NO 1 väst,56.104258,12.935873,1,,
9021012950126000,Bjuv NO 1 öst,56.074800,13.034314,1,,
9021012010002000,Mörrum station,56.186897,14.744085,1,,
9021012010003000,Karlshamn resecentrum,56.176579,14.867549,1,,
9021012010004000,Bräkne Hoby station,56.231042,15.115742,1,,
9021012010005000,Ronneby resecentrum,56.206502,15.283541,1,,
9021012010006000,Bergåsa station,56.182712,15.601202,1,,
9021012010007000,Karlskrona C,56.166698,15.585174,1,,
9021012010011000,Nyteboda,56.324027,14.403722,1,,
9021012010044000,Länsgränsen,56.389862,14.418710,1,,
9021012072003000,Bromölla Tiansgård,56.069222,14.477414,1,,
9021012950082000,Bromölla NO 1,56.102711,14.548037,1,,
9021012950083000,Bromölla NO 2,56.173759,14.490309,1,,
9021012950084000,Bromölla NO 3,56.038486,14.468266,1,,
9021012950085000,Bromölla NO 4,56.116192,14.488481,1,,
9021012031000000,Rinnebäcks station,55.636405,13.069232,1,,
9021012031004000,Hvilan Lindvägen,55.650980,13.118414,1,,
9021012031005000,Burlöv Kronetorp,55.641886,13.091870,1,,
9021012031007000,Arlöv Kyrkogatan,55.633274,13.079155,1,,
9021012031008000,Arlöv Elisetorpsvägen,55.633731,13.083539,1,,
9021012031009000,Arlöv Rapsvägen,55.634278,13.087949,1,,
9021012031010000,Burlöv center,55.638825,13.085934,1,,
9021012031011000,Arlöv Allégatan,55.629203,13.067844,1,,
9021012031012000,Arlöv Ringvägen,55.636839,13.081068,1,,
9021012031013000,Arlöv kyrka,55.634949,13.076100,1,,
9021012031014000,Arlöv Sockerbitstorget,55.632002,13.070460,1,,
9021012031016000,Arlöv Norra Promenaden,55.638434,13.064340,1,,
9021012031017000,Arlöv Strandängen,55.639009,13.060742,1,,
9021012031018000,Mossvägen,55.645076,13.098386,1,,
9021012031019000,Åkarp Sockervägen,55.647496,13.104241,1,,
9021012031020000,Åkarp Alnarpsvägen,55.650071,13.111008,1,,
9021012031022000,Burlövs Egnahem,55.633079,13.097117,1,,
9021012031023000,Nordanåvägen,55.634035,13.115223,1,,
9021012031027000,Mimosavägen,55.637201,13.101456,1,,
9021012031029000,Åkarp Gränsvägen,55.655190,13.100675,1,,
9021012031030000,Åkarp Stationsvägen,55.654023,13.106429,1,,
9021012031031000,Burlövs station,55.640808,13.080157,1,,
9021012031032000,Åkarps station,55.657613,13.108693,1,,
9021012031033000,Stora Bernstorp,55.612716,13.102698,1,,
9021012031040000,Sunnanå,55.615664,13.121547,1,,
9021012031070000,Bernstorp Santessons väg,55.612056,13.095599,1,,
9021012950021000,Burlöv NO 1,55.612844,13.098736,1,,
9021012078001000,Båstad busstation,56.426119,12.848759,1,,
9021012078003000,Förslöv Sandbäcksvägen,56.347913,12.816695,1,,
9021012078005000,Grevie,56.391410,12.782894,1,,
9021012078006000,Hov Kyrkan,56.434972,12.729561,1,,
9021012078007000,Möllhult,56.398268,12.701236,1,,
9021012078008000,Rammsjö Östra,56.396490,12.674127,1,,
9021012078009000,Norrviken,56.448336,12.793719,1,,
9021012078010000,Torekov busstation,56.424126,12.629809,1,,
9021012078011000,Västra Karup affären,56.411601,12.746313,1,,
9021012078012000,Ö Karup affären,56.424417,12.946237,1,,
9021012078013000,Båstad Brandstationen,56.427089,12.845732,1,,
9021012078014000,Dala Skogsliden,56.418921,12.845719,1,,
9021012078015000,Dala Sinarpsvägen,56.410798,12.837047,1,,
9021012078016000,Sinarps Smedja,56.406037,12.826981,1,,
9021012078017000,Stora Nötte,56.402329,12.819655,1,,
9021012078018000,Lilla Nötte,56.393299,12.807402,1,,
9021012078020000,Killeröd,56.372554,12.808612,1,,
9021012078021000,Förslöv Önnarpsvägen,56.362603,12.816257,1,,
9021012078022000,Förslöv Olstorp,56.358840,12.817458,1,,
9021012078023000,Förslöv Margretetorpsvägen,56.354029,12.819162,1,,
9021012078024000,Karstorp Viarpsvägen,56.340897,12.823457,1,,
9021012078025000,Karstorp,56.336150,12.830428,1,,
9021012078026000,Förslöv Fogdarpsvägen,56.343908,12.819775,1,,
9021012078027000,Förslöv Bokesliden,56.364866,12.808034,1,,
9021012078028000,Grevie by Kyrkan,56.370809,12.793739,1,,
9021012078029000,Grevie by,56.372159,12.787172,1,,
9021012078030000,Grevie by Almgården,56.373701,12.786273,1,,
9021012078031000,Grevie Kvinnaböskevägen,56.378817,12.787520,1,,
9021012078032000,Grevie Lindab,56.383022,12.783073,1,,
9021012078033000,Grevie Industrivägen,56.386625,12.778300,1,,
9021012078034000,Grevie Förslövsvägen,56.389569,12.776690,1,,
9021012078035000,Grevie Ljungvägen,56.392998,12.790544,1,,
9021012078038000,Grevie Salomonhögsvägen S,56.403642,12.755508,1,,
9021012078039000,V Karup Salomonhögsvägen N,56.408454,12.749515,1,,
9021012078040000,Västra Karup Bjärehem,56.413783,12.741858,1,,
9021012078041000,Hånarp,56.419694,12.736356,1,,
9021012078042000,Sönnerstorp Påarpsvägen,56.424896,12.732710,1,,
9021012078043000,Storahult,56.324365,12.775068,1,,
9021012078044000,Storahult norra,56.329821,12.775476,1,,
9021012078045000,V Ljungby,56.335324,12.782998,1,,
9021012078047000,Ranarp,56.353773,12.784159,1,,
9021012078048000,Ranarp Smedjan,56.356811,12.782721,1,,
9021012078049000,Segelstorpsvägen,56.366211,12.775404,1,,
9021012078050000,Havsten,56.369118,12.771934,1,,
9021012078051000,Grevie backar,56.381964,12.750926,1,,
9021012078052000,Killebäckstorp,56.384000,12.745321,1,,
9021012078053000,Öllöv,56.386498,12.731546,1,,
9021012078054000,Glimminge,56.388711,12.717193,1,,
9021012078055000,Möllhultsbro,56.394318,12.701720,1,,
9021012078056000,Vegalt,56.396798,12.687048,1,,
9021012078057000,Ängelsbäck,56.375128,12.767457,1,,
9021012078058000,Rammsjö Västra,56.396551,12.668711,1,,
9021012078059000,Slättaröd Burensviksvägen,56.407415,12.664121,1,,
9021012078060000,Slättaröd Blomsterbo,56.410926,12.661529,1,,
9021012078061000,Torekov Östra,56.416288,12.653305,1,,
9021012078062000,Torekov Godtemplarhuset,56.418168,12.648091,1,,
9021012078063000,Torekov Eneborgsvägen,56.421279,12.641088,1,,
9021012078064000,Torekov Kyrka,56.425222,12.631534,1,,
9021012078065000,Torekov Lugnet,56.430408,12.642470,1,,
9021012078066000,Andersgårdsvägen,56.432260,12.653798,1,,
9021012078067000,Båstad Perstorp,56.433577,12.661799,1,,
9021012078068000,Bjäretorp,56.433584,12.668464,1,,
9021012078069000,Råledsvägen,56.434079,12.674895,1,,
9021012078070000,Ängalag Dalenvägen,56.436490,12.694987,1,,
9021012078071000,Hovs Hallarvägen,56.437436,12.701544,1,,
9021012078074000,Hov Maskinstationen,56.435305,12.743758,1,,
9021012078075000,Sönnertorp,56.374966,12.767453,1,,
9021012078076000,Boarp Häljarpsvägen,56.428923,12.789093,1,,
9021012078077000,Påarpsvägen,56.430389,12.728488,1,,
9021012078078000,V Karup Svenstadsvägen,56.416295,12.756278,1,,
9021012078079000,V Karup Karups gata,56.426480,12.781779,1,,
9021012078080000,Svenstad Ridhuset,56.435144,12.750681,1,,
9021012078081000,Svenstad,56.434254,12.762381,1,,
9021012078082000,Svenstad Smedjan,56.434478,12.774835,1,,
9021012078083000,Boarp affären,56.435988,12.789961,1,,
9021012078084000,Småryd Utsikten,56.438269,12.806178,1,,
9021012078085000,Båstad Hasselbacken,56.435346,12.824687,1,,
9021012078086000,Båstad Torget,56.433136,12.834818,1,,
9021012078087000,Båstad Citykiosken,56.431486,12.838693,1,,
9021012078089000,Båstad Kungsbergsvägen,56.426969,12.859524,1,,
9021012078090000,Båstad Kalkvägen,56.426904,12.868172,1,,
9021012078091000,Båstad Rivieravägen,56.426845,12.876300,1,,
9021012078092000,Hemmeslöv Eskilstorp,56.428047,12.909092,1,,
9021012078093000,Hemmeslöv,56.429927,12.919959,1,,
9021012078094000,Hemmeslöv Smedjan,56.428807,12.929011,1,,
9021012078095000,Båstad Vårliden,56.423834,12.844867,1,,
9021012078096000,Hov Södra,56.433706,12.727068,1,,
9021012078097000,Olastorp,56.442738,12.700820,1,,
9021012078098000,Ingelstorp Kvarn,56.449699,12.701793,1,,
9021012078099000,Segeltorp Gård,56.454129,12.704303,1,,
9021012078100000,Hallavara,56.453698,12.718716,1,,
9021012078101000,Ingelstorp,56.444399,12.722391,1,,
9021012078103000,Båstad Måsvägen,56.433471,12.888278,1,,
9021012078104000,Båstad Mellanvägen,56.438011,12.893347,1,,
9021012078105000,Båstad Granvägen,56.441944,12.901675,1,,
9021012078106000,Östra Karup skolan,56.421749,12.948626,1,,
9021012078107000,Förslöv Sigurdsvägen,56.346610,12.805163,1,,
9021012078108000,Viarp,56.342617,12.798358,1,,
9021012078109000,Västra Karup skolan,56.408555,12.738324,1,,
9021012078110000,Västra Karup Idrottsplats,56.403044,12.722627,1,,
9021012078111000,Förslöv Fabriksvägen,56.353114,12.810300,1,,
9021012078112000,Gräsryd,56.424156,12.954412,1,,
9021012078114000,Båstad station,56.432151,12.907482,1,,
9021012078115000,Förslövs station,56.354245,12.800614,1,,
9021012078116000,Båstad Ekorrvägen,56.428877,12.875609,1,,
9021012078117000,Båstad Stensåvägen,56.431643,12.876693,1,,
9021012078118000,Båstad Perstorpsvägen,56.433013,12.882199,1,,
9021012078119000,Båstad Förbindelsevägen,56.436317,12.901586,1,,
9021012078120000,Båstad Järnvägsbron,56.433960,12.907198,1,,
9021012078121000,Båstad Herrgårdsvägen,56.431578,12.916785,1,,
9021012078122000,Birgit Nilssons museum,56.434227,12.762383,1,,
9021012078123000,Båstad Entré,56.426575,12.886552,1,,
9021012078204000,Mäsinge,56.403038,12.702241,1,,
9021012950058000,Båstad NO 1,56.439129,12.920802,1,,
9021012950059000,Båstad NO 2,56.396811,12.866603,1,,
9021012950060000,Båstad NO 3,56.388261,12.934582,1,,
9021012950061000,Båstad NO 4,56.356254,12.860664,1,,
9021012950062000,Båstad NO 5,56.337069,12.790043,1,,
9021012950063000,Båstad NO 6,56.385489,12.742334,1,,
9021012950064000,Båstad NO 10,56.446619,12.667616,1,,
9021012950065000,BÅ11,56.452305,12.733530,1,,
9021012950141000,Båstad NO 9,56.447349,12.737354,1,,
9021012950142000,Båstad NO 8,56.421872,12.789571,1,,
9021012950155000,Båstad NO 7,56.409041,12.687942,1,,
9021012085000000,Marieholms station,55.864642,13.159097,1,,
9021012085001000,Eslöv Vetegatan,55.848625,13.278803,1,,
9021012085002000,Eslöv Aprikosgatan,55.836780,13.269961,1,,
9021012085003000,Eslöv Flygstaden,55.842439,13.329808,1,,
9021012085004000,Eslöv Medborgarhuset,55.834677,13.302379,1,,
9021012085005000,Eslöv Stadshuset,55.832835,13.301045,1,,
9021012085006000,Eslöv Tåbelundsvägen,55.829260,13.298880,1,,
9021012085007000,Gårdstånga trafikplats,55.769857,13.321201,1,,
9021012085011000,Eslöv Dammlyckan,55.841021,13.312573,1,,
9021012085013000,Eslöv Ulvåsa,55.840630,13.285885,1,,
9021012085014000,Eslöv Gasverksgatan,55.833109,13.312298,1,,
9021012085015000,Eslöv Kyrkogården,55.829252,13.298897,1,,
9021012085016000,Eslöv Verkstadsvägen,55.834220,13.317479,1,,
9021012085017000,Eslöv Bergaskolan,55.838683,13.316891,1,,
9021012085018000,Stockamöllan Lindarnas väg,55.945901,13.370629,1,,
9021012085019000,Eslöv Malmgatan,55.839044,13.300613,1,,
9021012085021000,Eslöv Kärråkra vårdcentral,55.843291,13.285553,1,,
9021012085022000,Eslöv Djupadalsvägen,55.829004,13.289431,1,,
9021012085024000,V Sallerups k:a,55.829509,13.275063,1,,
9021012085032000,Orrahus,55.924844,13.375279,1,,
9021012085033000,Rönneholm,55.932778,13.379855,1,,
9021012085034000,Hasslebro,55.936285,13.381877,1,,
9021012085037000,Gunnaröd,55.948461,13.351590,1,,
9021012085038000,Klockaregården,55.954983,13.341185,1,,
9021012085039000,Billinge k:a,55.959979,13.335389,1,,
9021012085040000,Billinge Måns Andreas väg,55.964357,13.330625,1,,
9021012085042000,Billinge N,55.974990,13.328135,1,,
9021012085043000,Hassle skolan,55.916566,13.385124,1,,
9021012085047000,Eslövs flygplats,55.843174,13.333322,1,,
9021012085048000,Snärjehusvägen,55.846602,13.342079,1,,
9021012085049000,Kastberga gård,55.852175,13.352076,1,,
9021012085050000,Kastberga skola,55.854693,13.363035,1,,
9021012085052000,St Kastberga,55.854280,13.382132,1,,
9021012085053000,Kungshult riksvägen,55.851279,13.412361,1,,
9021012085055000,Gryby,55.825683,13.334752,1,,
9021012085056000,Borlunda,55.803257,13.330271,1,,
9021012085057000,Väggarp landsvägen,55.788220,13.245819,1,,
9021012085058000,Gårdstånga skolan,55.763209,13.323457,1,,
9021012085059000,Flyinge posten,55.752742,13.361545,1,,
9021012085060000,Flyinge Plantskolevägen,55.751726,13.370099,1,,
9021012085064000,Harlösa busstation,55.715086,13.527717,1,,
9021012085065000,Harlösa S,55.711652,13.518432,1,,
9021012085073000,Marieholm centrum,55.863376,13.154102,1,,
9021012085075000,Kristineberg,55.807433,13.334218,1,,
9021012085076000,Skarhult stn,55.807415,13.347205,1,,
9021012085077000,Skarhult slottet,55.804166,13.372168,1,,
9021012085078000,Skarhult skolan,55.801326,13.376700,1,,
9021012085079000,Källsliden,55.796689,13.394868,1,,
9021012085080000,Hurva Mejerivägen,55.793603,13.438101,1,,
9021012085082000,Hurva gästis,55.793442,13.436277,1,,
9021012085083000,Hurva Vikedal,55.788250,13.425606,1,,
9021012085084000,Fridalund,55.782523,13.419849,1,,
9021012085085000,Nyhem,55.776830,13.428837,1,,
9021012085086000,Tängelsås,55.769295,13.444341,1,,
9021012085087000,Blackmad,55.770120,13.461153,1,,
9021012085088000,Löberöds gård,55.771576,13.483412,1,,
9021012085089000,Löberöd Parkgatan,55.773926,13.507563,1,,
9021012085090000,Löberöd torget,55.775195,13.512510,1,,
9021012085094000,Kungabacken,55.776810,13.555629,1,,
9021012085100000,Gårdstånga vägbron,55.764989,13.319471,1,,
9021012085101000,Bagershill,55.759231,13.306294,1,,
9021012085102000,Igelösavägen,55.751863,13.296585,1,,
9021012085103000,Getinge,55.763961,13.312652,1,,
9021012085105000,Eslöv Åkermansvägen,55.844067,13.313927,1,,
9021012085106000,Hurva E22,55.791678,13.442173,1,,
9021012085108000,Fjortontorp,55.984877,13.321637,1,,
9021012085109000,Fäladsvägen,55.978755,13.325507,1,,
9021012085110000,Skeglinge,55.789256,13.322134,1,,
9021012085112000,Harlösa V,55.716031,13.523014,1,,
9021012085113000,Eslöv Bergavägen,55.840527,13.318800,1,,
9021012085114000,Eslöv Bruksgatan,55.839688,13.313713,1,,
9021012085115000,Eslöv Carl Engström skolan,55.839144,13.309085,1,,
9021012085116000,Eslöv Stora Torg,55.838741,13.303395,1,,
9021012085118000,Eslöv Karlsrobadet,55.841318,13.292276,1,,
9021012085120000,Eslöv Prostgatan,55.833592,13.293237,1,,
9021012085121000,Eslöv Sturegatan,55.833449,13.295897,1,,
9021012085124000,Eslöv Hundramannavägen,55.829005,13.294730,1,,
9021012085125000,Eslöv Kyrkogatan,55.835129,13.302494,1,,
9021012085127000,Eslöv Saxåvägen,55.851856,13.299741,1,,
9021012085128000,Eslöv Norrevångskolan,55.848585,13.304104,1,,
9021012085129000,Eslöv Karidal Servicehus,55.843447,13.301943,1,,
9021012085131000,Eslövs station,55.837448,13.305171,1,,
9021012085132000,Örtofta station,55.778566,13.243901,1,,
9021012085133000,Stehags station,55.900309,13.393174,1,,
9021012085164000,Eslöv Berga,55.841085,13.322821,1,,
9021012085166000,Eslöv Vasagatan,55.836737,13.307324,1,,
9021012085169000,Eslöv Fiskaregatan,55.840081,13.316274,1,,
9021012085170000,Eslöv Palmgatan,55.840428,13.298432,1,,
9021012085171000,Eslöv Kattarpsvägen,55.845335,13.281812,1,,
9021012085172000,Eslöv Ekebyvägen,55.844310,13.278269,1,,
9021012085173000,Eslöv Tågarpsvägen,55.842614,13.278379,1,,
9021012085174000,Eslöv Specialisthuset,55.839873,13.280968,1,,
9021012085177000,Eslöv Lantmannavägen,55.832976,13.281575,1,,
9021012085178000,Eslöv Solhällan,55.834837,13.283785,1,,
9021012085179000,Eslöv Tåbelunds Vårdcentral,55.833857,13.287744,1,,
9021012085180000,Eslöv Sallerup,55.828935,13.283433,1,,
9021012085181000,Eslöv Mossavägen,55.831207,13.301804,1,,
9021012085186000,Eslöv Sextorpsvägen,55.852124,13.302758,1,,
9021012085187000,Eslöv Rönneberga,55.851707,13.295965,1,,
9021012085188000,Eslöv Repslagaregatan,55.841139,13.301117,1,,
9021012085190000,Eslöv Husarvägen,55.845331,13.283776,1,,
9021012085194000,Uddenäs,55.756802,13.339909,1,,
9021012085205000,Eslöv Enskiftesvägen,55.840718,13.278806,1,,
9021012085208000,Eslöv Byavägen,55.841742,13.285350,1,,
9021012085209000,Eslöv Trollsjögården,55.837867,13.285234,1,,
9021012085210000,Eslöv Stinstorget,55.837512,13.307450,1,,
9021012085211000,Eslöv Kronovägen,55.835124,13.277636,1,,
9021012950086000,Eslöv NO 1,55.752668,13.556048,1,,
9021012950087000,Eslöv NO 2,55.784658,13.427101,1,,
9021012950088000,Eslöv NO 3,55.926669,13.374892,1,,
9021012950089000,Eslöv NO 4,55.840270,13.222677,1,,
9021012002503000,Laholm Repslagargatan,56.511082,13.052599,1,,
9021012002505000,Laholm Glänninge vårdcentral,56.504204,13.051977,1,,
9021012002507000,Laholm Altona,56.503528,13.046210,1,,
9021012002518000,Laholm Kristianstadsvägen,56.507425,13.058259,1,,
9021012013000000,Grönfodertorken,56.572443,13.020160,1,,
9021012013003000,Halmstad C,56.669257,12.864614,1,,
9021012013004000,Gräsryd,56.424156,12.954412,1,,
9021012013006000,Halmstad busstn,56.670006,12.865518,1,,
9021012013008000,Knäred Västralt,56.515546,13.310519,1,,
9021012013009000,Laholm station,56.502297,12.998893,1,,
9021012013010000,Mellbystrand,56.514239,12.949726,1,,
9021012013014000,Veinge Station,56.552937,13.076807,1,,
9021012013015000,Laholm Busstationen,56.511525,13.047026,1,,
9021012013016000,Laholm Vårdcentral Centrum,56.510428,13.040947,1,,
9021012013017000,Laholm Danska vägen,56.507904,13.037328,1,,
9021012013018000,Laholm Lagaholmsskolan,56.503520,13.039760,1,,
9021012013019000,Laholm Brandstationen,56.504323,13.033885,1,,
9021012013020000,Laholm Ängelholmsvägen,56.500578,13.033558,1,,
9021012013021000,Laholm Nyby,56.495048,13.035358,1,,
9021012013022000,Kövlinge,56.484695,13.040076,1,,
9021012013023000,Ysbyvägen,56.479714,13.041559,1,,
9021012013024000,Vallberga Brohuset,56.469718,13.028440,1,,
9021012013025000,Vallberga,56.467736,13.024202,1,,
9021012013026000,Vrångarp,56.456531,12.999805,1,,
9021012013027000,Smedjeån,56.450857,12.988932,1,,
9021012013028000,Skottorp Rosenlundsvägen,56.446999,12.962791,1,,
9021012013029000,Skottorp Pråmhuset,56.436219,12.956217,1,,
9021012013031000,Mellbystrand Ulanders väg,56.504564,12.950584,1,,
9021012013032000,Mellby,56.503745,12.981158,1,,
9021012013033000,Mellbystrand Grönatorgsvägen,56.509196,12.948058,1,,
9021012013034000,Mellbystrand Mellbyvägen,56.499415,12.944327,1,,
9021012013035000,Mellbystrand Brodds väg,56.495444,12.943554,1,,
9021012013036000,Mellbystrand Kolonivägen,56.490977,12.941552,1,,
9021012013037000,Mellbystrand Ejdervägen,56.485166,12.937378,1,,
9021012013038000,Falkenberg,56.919592,12.507360,1,,
9021012013040000,Åsa station,57.363126,12.135617,1,,
9021012013042000,Varberg,57.109460,12.248520,1,,
9021012013043000,Skummeslöv Vallbergavägen,56.477792,12.932805,1,,
9021012013044000,Skummeslöv Berndtssons väg,56.470322,12.927639,1,,
9021012013045000,Skummeslövsstrand,56.461534,12.921796,1,,
9021012013047000,Skummeslöv Stjärnhem,56.456243,12.937354,1,,
9021012013048000,Skummeslöv Orionvägen,56.458427,12.934252,1,,
9021012013049000,Laholm Blåkulla,56.506061,13.026025,1,,
9021012013050000,Laholm Simsons väg,56.505565,13.022356,1,,
9021012013051000,Laholm Sologatan,56.504919,13.032006,1,,
9021012013052000,Laholm Trumgatan,56.503378,13.010982,1,,
9021012013054000,Skottorp,56.450475,12.958816,1,,
9021012013055000,Skummeslöv Elins väg,56.459607,12.928564,1,,
9021012013056000,Skummeslöv Hedhusvägen Ö,56.450595,12.934389,1,,
9021012013058000,Kungsbacka Hede station,57.513331,12.083702,1,,
9021012013059000,Anneberg,57.537149,12.101792,1,,
9021012013060000,Lindome,57.576753,12.079462,1,,
9021012013061000,Kållered,57.610633,12.048495,1,,
9021012013062000,Liseberg,57.698164,11.994606,1,,
9021012013182000,Sjöalt,56.356538,13.229279,1,,
9021012013526000,Laholm Grönkulla,56.504642,13.038541,1,,
9021012011002000,Köbenhavn Flygplats (gate),55.628593,12.649334,1,,
9021012045002000,Humlebæk,55.964376,12.534289,1,,
9021012045003000,Louisiana,55.969693,12.541243,1,,
9021012045004000,Helsingör station,56.032715,12.612529,1,,
9021012045005000,Ørestad,55.628680,12.575751,1,,
9021012045006000,CPH Airport,55.629429,12.649696,1,,
9021012045007000,København H,55.672692,12.564631,1,,
9021012045008000,Tårnby,55.629723,12.601446,1,,
9021012045009000,Helsingör Färjeläge,56.033280,12.615933,1,,
9021012045010000,København Havnegade,55.603436,12.587384,1,,
9021012045011000,København Østerport,55.693314,12.592868,1,,
9021012045012000,København Nørreport,55.684016,12.572808,1,,
9021012045013000,Snekkersten,56.009235,12.583253,1,,
9021012045014000,Espergærde,55.996331,12.550814,1,,
9021012045015000,Nivå,55.934131,12.507527,1,,
9021012045016000,Kokkedal,55.904192,12.503016,1,,
9021012045017000,Rungsted Kyst,55.882866,12.532282,1,,
9021012045018000,Vedbæk,55.853623,12.563837,1,,
9021012045019000,Skodsborg,55.824281,12.572363,1,,
9021012045020000,Klampenborg,55.778327,12.588627,1,,
9021012045021000,Hellerup,55.731873,12.568436,1,,
9021012045997000,Köpenhamn Ingerslevsgade,55.665168,12.558433,1,,
9021012045998000,Kastrup Terminal 2,55.628961,12.644794,1,,
9021012001000000,NO,55.635013,14.237802,1,,
9021012083001000,Väla Restaurangtorget,56.090564,12.757902,1,,
9021012083002000,Björknäs,56.015137,12.881839,1,,
9021012083003000,Helsingborg Gustav Adolfs torg,56.038644,12.702495,1,,
9021012083004000,Helsingborg Raus Planterings sk,56.025221,12.709029,1,,
9021012083005000,Helsingborg Miatorp,56.020195,12.719315,1,,
9021012083006000,Pilasmedjan,56.153013,12.678751,1,,
9021012083007000,Helsingborg Albrogatan,56.016974,12.722748,1,,
9021012083009000,Helsingborg Heden,56.011626,12.727346,1,,
9021012083010000,Råå kyrkogård,56.006402,12.731899,1,,
9021012083011000,Helsingborg Allhelgonakyrkan,56.004210,12.733725,1,,
9021012083014000,Råå Kattegattsgatan,55.997832,12.745745,1,,
9021012083016000,Laröd Östra,56.100154,12.666609,1,,
9021012083017000,Helsingborg Grusvägen,56.079585,12.756536,1,,
9021012083018000,Helsingborg Olympia Park,56.051974,12.704410,1,,
9021012083022000,Helsingborg Tågagatan,56.058123,12.691678,1,,
9021012083023000,Helsingborg Halalid,56.060074,12.689947,1,,
9021012083025000,Rydsbo,56.158984,12.678555,1,,
9021012083026000,Helsingborg Donationsgatan,56.060029,12.695283,1,,
9021012083028000,Helsingborg Stattena Västra,56.056898,12.700128,1,,
9021012083030000,Helsingborg S:ta Anna k:a,56.065594,12.699653,1,,
9021012083031000,Helsingborg Fäladsgatan,56.066885,12.703469,1,,
9021012083032000,Helsingborg Västra Berga,56.068191,12.705725,1,,
9021012083035000,Helsingborg Kadettgatan N,56.071983,12.704649,1,,
9021012083036000,Helsingborg Rosengården Ö,56.051536,12.734666,1,,
9021012083039000,Helsingborg Dalhem,56.063994,12.740212,1,,
9021012083040000,Helsingborg Dalhem Centrum,56.067859,12.735937,1,,
9021012083041000,Helsingborg Annerovägen,56.066131,12.732942,1,,
9021012083042000,Helsingborg Skvadrongatan,56.066665,12.724787,1,,
9021012083043000,Domsten Sundsvägen,56.115205,12.613333,1,,
9021012083045000,Helsingborg Maxi,56.065192,12.720504,1,,
9021012083046000,Gantofta station,55.990340,12.806136,1,,
9021012083047000,Helsingborg Tågagatan V,56.052864,12.686289,1,,
9021012083048000,Helsingborg Friabad,56.057546,12.683084,1,,
9021012083049000,Helsingborg Pålsjöbaden,56.065150,12.677843,1,,
9021012083050000,Helsingborg Pålsjö N,56.067737,12.674950,1,,
9021012083051000,Helsingborg Tinkarp N,56.072409,12.668900,1,,
9021012083052000,Helsingborg Tinkarp Övre,56.079847,12.663859,1,,
9021012083053000,Laröd Fårahagen,56.082833,12.663263,1,,
9021012083054000,Laröd Sofiero,56.087367,12.660643,1,,
9021012083055000,Laröd Serpentinvägen,56.091537,12.656782,1,,
9021012083056000,Laröd Rosenvägen,56.096056,12.653214,1,,
9021012083057000,Laröd Skolvägen,56.095880,12.648437,1,,
9021012083058000,Hittarp Sundsliden,56.096887,12.643564,1,,
9021012083059000,Hittarp Kruareliden,56.102171,12.639014,1,,
9021012083060000,Kulla Gunnarstorp S,56.108147,12.638298,1,,
9021012083061000,Kulla Gunnarstorp Slottet,56.110967,12.629140,1,,
9021012083062000,Domsten Fornminnet,56.112160,12.619987,1,,
9021012083063000,Domsten N,56.123949,12.601234,1,,
9021012083064000,Domsten Berghemsvägen,56.120832,12.604035,1,,
9021012083065000,Grå Läge,56.128935,12.597005,1,,
9021012083066000,Viken Talldungen,56.134422,12.591688,1,,
9021012083067000,Helsingborg Stattena,56.056998,12.701951,1,,
9021012083068000,Helsingborg Älvsborgsgatan,56.062032,12.709159,1,,
9021012083069000,Berga trafikplats,56.068265,12.721945,1,,
9021012083070000,Väla Södra,56.089944,12.758996,1,,
9021012083071000,Väla Marknadsvägen,56.093174,12.757358,1,,
9021012083072000,Helsingborg Kavalleristen,56.064443,12.719310,1,,
9021012083073000,Ödåkra Merkuriusgatan,56.097207,12.750400,1,,
9021012083074000,Ödåkra Jupitergatan,56.098686,12.756038,1,,
9021012083075000,Ödåkra Norrskensgatan,56.101685,12.759225,1,,
9021012083079000,Allerum Halevång,56.110467,12.703450,1,,
9021012083080000,Allerum kyrka,56.109505,12.692736,1,,
9021012083081000,Allerum Tornhultsvägen,56.116999,12.694463,1,,
9021012083082000,Hjälmshult Brödavägen,56.121963,12.692469,1,,
9021012083083000,Hjälmshult Fåglebäcksgatan,56.125278,12.694228,1,,
9021012083084000,Utvälinge V,56.217576,12.769446,1,,
9021012083085000,Utvälinge Kryssvägen,56.215969,12.779023,1,,
9021012083086000,Utvälinge Skeppsvägen,56.213026,12.786576,1,,
9021012083087000,Ödåkra Hagagatan,56.105050,12.748507,1,,
9021012083092000,Björkdala,56.108185,12.712784,1,,
9021012083093000,Hjälmshult golfbanan,56.132530,12.713209,1,,
9021012083094000,Fleninge k:a,56.111651,12.793271,1,,
9021012083095000,Fleninge N,56.113082,12.794864,1,,
9021012083096000,Norrbölingevägen,56.120220,12.799791,1,,
9021012083097000,Sturelundsvägen,56.123127,12.801801,1,,
9021012083098000,Grönvik,56.132073,12.809775,1,,
9021012083099000,Hasslarp torget,56.136761,12.812629,1,,
9021012083103000,Laröd Sofiero Huvudentrén,56.085411,12.662860,1,,
9021012083104000,Ödåkra Ravinen,56.095009,12.750156,1,,
9021012083105000,Helsingborg Lasarettet,56.047222,12.705579,1,,
9021012083106000,Helsingborg Ekslingan,56.090139,12.747279,1,,
9021012083108000,Helsingborg Regementsvägen,56.062611,12.714703,1,,
9021012083109000,Helsingborg Tofsmesgatan,56.076629,12.701432,1,,
9021012083110000,Helsingborg Rökullagatan,56.065369,12.729388,1,,
9021012083111000,Råå Centrum Öster,56.000956,12.742724,1,,
9021012083112000,Annelund,56.097423,12.698969,1,,
9021012083113000,Mossavägen,56.103093,12.696438,1,,
9021012083114000,Allerum S,56.107575,12.692796,1,,
9021012083115000,Alledal,56.130673,12.692569,1,,
9021012083116000,Mariedalsvägen,56.137948,12.688891,1,,
9021012083117000,Skoghus,56.143282,12.683727,1,,
9021012083118000,Väla Volym,56.091237,12.766641,1,,
9021012083119000,Allerums Mosseväg,56.102856,12.696682,1,,
9021012083120000,Helsingborg Tallgatan,56.024501,12.714703,1,,
9021012083121000,Helsingborg Frigoscandia,56.012379,12.733044,1,,
9021012083122000,Helsingborg Elektrogatan,56.009590,12.734710,1,,
9021012083123000,Råå Kielergatan,56.004275,12.739606,1,,
9021012083124000,Råå Lybecksgatan,56.000447,12.743213,1,,
9021012083125000,Sundsgården,55.988943,12.764900,1,,
9021012083126000,Hjälmshult,56.119180,12.693306,1,,
9021012083127000,Rya kvarn,55.976790,12.774220,1,,
9021012083128000,Rydebäck Brännögatan,55.973225,12.775044,1,,
9021012083129000,Rydebäck Storövägen N,55.971418,12.771372,1,,
9021012083130000,Rydebäck Storövägen S,55.967666,12.771922,1,,
9021012083131000,Rydebäck Blidögatan,55.964226,12.771631,1,,
9021012083132000,Rydebäck Vindögatan,55.962474,12.768708,1,,
9021012083133000,Rydebäck Fortunavägen,55.958872,12.768766,1,,
9021012083134000,Rydebäck Södra,55.958328,12.775489,1,,
9021012083135000,Helsingborg Kvarnstensgatan,56.035413,12.710892,1,,
9021012083136000,Bårslöv Kaprifolgatan,56.010009,12.799077,1,,
9021012083137000,Bårslöv Snödroppegatan,56.009072,12.811131,1,,
9021012083138000,Bårslöv kyrkan,56.005875,12.815661,1,,
9021012083139000,Råå Orkestergatan,55.996102,12.753178,1,,
9021012083140000,Pålstorps gård,55.996619,12.758428,1,,
9021012083141000,Gullvången V,55.996857,12.766635,1,,
9021012083142000,Gullvången Ö,55.997105,12.771923,1,,
9021012083143000,Fredriksborg,55.996656,12.777442,1,,
9021012083144000,Strandängsvägen,55.995583,12.782016,1,,
9021012083145000,Marbäcksvägen,55.993058,12.792314,1,,
9021012083146000,Gantofta Gantoftavägen,55.991937,12.798285,1,,
9021012083147000,Gantofta Glasyrgatan,55.990389,12.804064,1,,
9021012083148000,Gantofta centrum,55.987747,12.805183,1,,
9021012083149000,Nymölle,55.992978,12.808561,1,,
9021012083150000,Fjärestad Västregård,55.989308,12.828387,1,,
9021012083151000,Fastmårupsvägen,55.986946,12.838508,1,,
9021012083152000,Fjärestad k:a,55.985883,12.842869,1,,
9021012083153000,Fjärestad korsvägen,55.985271,12.851828,1,,
9021012083154000,Fjärestadstorp,55.981132,12.856071,1,,
9021012083155000,Tjutebrovägen,55.976819,12.859476,1,,
9021012083156000,Norra Vallåkra,55.971671,12.861759,1,,
9021012083157000,Vallåkra station,55.963798,12.861684,1,,
9021012083158000,Vallåkra Borgvalla,55.961829,12.856772,1,,
9021012083159000,Vallåkra Eskatorpsvägen,55.958779,12.862226,1,,
9021012083160000,Gantofta Carlsro,55.984960,12.806617,1,,
9021012083161000,Sliprännan,55.977711,12.812612,1,,
9021012083162000,Åsahögen,55.974671,12.814000,1,,
9021012083163000,Stenhög,55.972638,12.819093,1,,
9021012083164000,Kvistofta k:a,55.968353,12.829133,1,,
9021012083165000,Vallåkra Bryggerivägen,55.962773,12.843323,1,,
9021012083166000,Vallåkra Idrottsplatsen,55.961958,12.847150,1,,
9021012083167000,Vallåkra Alstigen,55.961136,12.852996,1,,
9021012083169000,Kvistofta Östra,55.966478,12.834468,1,,
9021012083171000,Helsingborg Väla gård,56.085770,12.740683,1,,
9021012083172000,Helsingborg Ättekulla Sommarstad,56.014601,12.745044,1,,
9021012083173000,Kingelstad Gultarpsvägen,55.955955,12.946016,1,,
9021012083174000,Rönnarp,55.942214,12.949399,1,,
9021012083175000,Rya Ängavägen,55.982410,12.769997,1,,
9021012083176000,Rydebäck Spårögatan,55.961302,12.778764,1,,
9021012083177000,Helsingborg Djurparken,56.031561,12.779393,1,,
9021012083180000,Påarp Mullbärsgatan,56.029683,12.814011,1,,
9021012083183000,Mjöhult Västanbo,56.169040,12.678574,1,,
9021012083191000,Mörarp centrum,56.057674,12.879533,1,,
9021012083194000,Kattarps station,56.144384,12.778492,1,,
9021012083195000,Maria station,56.075547,12.710597,1,,
9021012083196000,Ödåkra station,56.104897,12.745223,1,,
9021012083197000,Björka by,56.091705,12.770317,1,,
9021012083198000,Hjortshög Kroppavägen,56.098847,12.801796,1,,
9021012083199000,Fleningevägen,56.099744,12.811726,1,,
9021012083200000,Dalhem Rosendalsvägen,56.101188,12.829444,1,,
9021012083202000,Flädrevägen,56.098425,12.785978,1,,
9021012083203000,Fleninge gästis,56.107089,12.791216,1,,
9021012083204000,Hasslarp Folkets park,56.139747,12.814247,1,,
9021012083205000,Ramlösa station,56.023359,12.727951,1,,
9021012083206000,Helsingborg Lussebäckstorget,56.019605,12.727352,1,,
9021012083207000,Helsingborg Rusthållsgatan,56.016438,12.730412,1,,
9021012083208000,Helsingborg Torviggsgatan,56.015545,12.751610,1,,
9021012083209000,Bårslöv Anemongatan,56.009610,12.804465,1,,
9021012083210000,Bårslöv Blodboksvägen,56.005239,12.820586,1,,
9021012083211000,Attarp,56.004298,12.832205,1,,
9021012083212000,Bunketofta,56.002820,12.854802,1,,
9021012083214000,Kärntofta,56.000679,12.869750,1,,
9021012083215000,Hedåker,55.998108,12.887840,1,,
9021012083216000,Ödåkra Ödåkragården,56.107840,12.753754,1,,
9021012083217000,Helsingborg Runristargatan,56.015366,12.755619,1,,
9021012083218000,Helsingborg Fjärilsdalen,56.030827,12.764526,1,,
9021012083219000,Helsingborg Kanongatan,56.080487,12.733132,1,,
9021012083220000,Helsingborg Karbingatan,56.082983,12.734154,1,,
9021012083221000,Helsingborg Ishallen,56.054333,12.703899,1,,
9021012083225000,Allerums skola,56.111767,12.693695,1,,
9021012083227000,Helsingborg Bärnstensgatan,56.012793,12.756961,1,,
9021012083229000,Helsingborg Koppargatan,56.013584,12.717629,1,,
9021012083230000,Helsingborg Muskötgatan,56.074028,12.727477,1,,
9021012083231000,Helsingborg Högastensgatan,56.008482,12.730290,1,,
9021012083232000,Helsingborg Djursjukhuset,56.069526,12.719546,1,,
9021012083233000,Helsingborg Garnisonsgatan,56.075029,12.726529,1,,
9021012083234000,Helsingborg Mörsaregatan,56.074909,12.721735,1,,
9021012083235000,Helsingborg Garnisonsgatan Södra,56.069669,12.720949,1,,
9021012083236000,Helsingborg Ramlösagården,56.030664,12.757958,1,,
9021012083237000,Helsingborg Bergavägen,56.073720,12.715130,1,,
9021012083238000,Helsingborg Ättekulla,56.012212,12.761065,1,,
9021012083239000,Allerums boställe,56.108836,12.710416,1,,
9021012083241000,Helsingborg C,56.043055,12.694980,1,,
9021012083242000,Helsingborg Utgårdsgatan,56.006685,12.762158,1,,
9021012083243000,Helsingborg Miklagårdsgatan,56.004930,12.758768,1,,
9021012083244000,Mörarps station,56.056128,12.873066,1,,
9021012083245000,Påarps station,56.029357,12.817214,1,,
9021012083246000,Helsingborg Fjärrbussterminalen,56.043097,12.694832,1,,
9021012083247000,Helsingborg Brohult,56.074774,12.733941,1,,
9021012083248000,Helsingborg Brohultsvägen,56.073269,12.732325,1,,
9021012083249000,Helsingborg PostNord,56.068144,12.781296,1,,
9021012083251000,Helsingborg Rönnowska skolan,56.033995,12.702002,1,,
9021012083254000,Kingelstad byn,55.964774,12.943491,1,,
9021012083255000,Hjälmshult Lindaus väg,56.127226,12.699509,1,,
9021012083256000,Helsingborg Dalhemsvägen N,56.070834,12.731266,1,,
9021012083257000,Helsingborg Bajonettgatan,56.076952,12.729397,1,,
9021012083258000,Helsingborg Skytteklubben,56.077314,12.720852,1,,
9021012083259000,Helsingborg Långeberga (ICA),56.038674,12.779591,1,,
9021012083260000,Helsingborg Stenbrovägen 34,56.006323,12.776621,1,,
9021012083262000,Helsingborg Filbornaskolan Ö,56.054447,12.735028,1,,
9021012083263000,Helsingborg Bunkalundsvägen Ö,56.011703,12.769222,1,,
9021012083264000,Helsingborg Olympiaskolan,56.048839,12.708403,1,,
9021012083266000,Rydebäcks station,55.965836,12.784114,1,,
9021012083267000,Helsingborg Biblioteket,56.042894,12.700323,1,,
9021012083269000,Helsingborg Öresundsgatan,56.028497,12.711366,1,,
9021012083271000,Görarpsvägen Norra,56.013261,12.794605,1,,
9021012083272000,Helsingborg S:t Nicolai,56.047025,12.701308,1,,
9021012083273000,Helsingborg Kopparmölleplatsen,56.054148,12.696559,1,,
9021012083274000,Helsingborg badhuset,56.037915,12.702104,1,,
9021012083275000,Helsingborg Tussilagogatan,56.031010,12.770497,1,,
9021012083276000,Lunnagård,56.107054,12.716396,1,,
9021012083277000,Östergård,56.105456,12.723294,1,,
9021012083280000,Ormastorp,55.974833,12.907541,1,,
9021012083281000,Domsten Seglarevägen,56.117682,12.608028,1,,
9021012083282000,Berga Brohult,56.081279,12.724905,1,,
9021012083283000,Nattbuss Söder,56.012059,12.761077,1,,
9021012083284000,Nattbuss Norr,56.063692,12.740348,1,,
9021012083285000,Helsingborg Bunkalundsvägen V,56.010751,12.766297,1,,
9021012083286000,Helsingborg Maria Hage,56.086217,12.688606,1,,
9021012083287000,Helsingborg Kryddlandet,56.079932,12.692746,1,,
9021012083288000,Helsingborg Munkavägen,56.046045,12.707712,1,,
9021012083290000,Domsten Väg 111,56.126175,12.601804,1,,
9021012083291000,Helsingborg Öresundskraft,56.030953,12.705424,1,,
9021012083292000,Helsingborg Wienergatan,56.026989,12.707860,1,,
9021012083294000,Helsingborg Decauvillegatan,56.022350,12.717811,1,,
9021012083296000,Helsingborg Frontgatan,56.060107,12.722725,1,,
9021012083297000,Helsingborg Fredriksdalsskolan,56.057532,12.719638,1,,
9021012083298000,Helsingborg Lägervägen,56.059750,12.714546,1,,
9021012083299000,Helsingborg Rågångsgatan V,56.031279,12.718044,1,,
9021012083300000,Helsingborg Elinebergsplatsen,56.029971,12.725034,1,,
9021012083301000,Helsingborg Elinebergskyrkan,56.029650,12.729424,1,,
9021012083303000,Helsingborg Elineberg,56.027003,12.735717,1,,
9021012083304000,Helsingborg Brunnsvägen,56.025478,12.743059,1,,
9021012083305000,Helsingborg Bondegatan,56.026703,12.751852,1,,
9021012083306000,Helsingborg Fridas gata,56.025987,12.759611,1,,
9021012083307000,Helsingborg Humlegården,56.022869,12.759584,1,,
9021012083308000,Helsingborg Furutorpsplatsen,56.037934,12.707159,1,,
9021012083309000,Helsingborg Tranemansgatan,56.040203,12.711616,1,,
9021012083310000,Helsingborg Eneborgs plats,56.042631,12.709912,1,,
9021012083311000,Helsingborg Vagnmansgatan,56.043554,12.711926,1,,
9021012083312000,Råå Centrum Väster,55.999471,12.740099,1,,
9021012083313000,Helsingborg Mangårdsgatan,56.034825,12.756892,1,,
9021012083314000,Helsingborg Jönköpingsgatan,56.044513,12.720422,1,,
9021012083315000,Helsingborg Haparandagatan,56.046318,12.723617,1,,
9021012083316000,Helsingborg Borgholmsgatan,56.047365,12.728479,1,,
9021012083317000,Helsingborg Fältarpsvägen,56.037576,12.755118,1,,
9021012083318000,Helsingborg Majgatan,56.047875,12.734539,1,,
9021012083319000,Helsingborg Wallisgatan,56.021077,12.735899,1,,
9021012083320000,Helsingborg Brunnsparksskolan,56.019556,12.743384,1,,
9021012083321000,Helsingborg Ramlösa brunn,56.020712,12.750528,1,,
9021012083324000,Helsingborg Luntertungatan,56.031182,12.745111,1,,
9021012083325000,Helsingborg Gustavslundsvägen,56.030676,12.743193,1,,
9021012083326000,Helsingborg Brunnsberga,56.031529,12.739209,1,,
9021012083327000,Helsingborg Björkliden,56.031059,12.732602,1,,
9021012083328000,Helsingborg Närlunda,56.033356,12.719531,1,,
9021012083329000,Helsingborg Närlunda Norra,56.035093,12.718895,1,,
9021012083330000,Helsingborg Vallmogatan,56.019230,12.724189,1,,
9021012083332000,Helsingborg Ringstorpshöjden,56.062074,12.700129,1,,
9021012083333000,Helsingborg Traktörsgatan,56.040103,12.716215,1,,
9021012083334000,Helsingborg Filbornaskolan,56.052950,12.730828,1,,
9021012083335000,Helsingborg Skaragatan,56.051193,12.728848,1,,
9021012083336000,Helsingborg Rosengården C,56.050686,12.726881,1,,
9021012083337000,Helsingborg Billingegatan,56.052300,12.723172,1,,
9021012083338000,Helsingborg Åstorpsgatan,56.051782,12.718251,1,,
9021012083339000,Helsingborg Skånegatan,56.047781,12.717078,1,,
9021012083340000,Helsingborg Vasatorp Trädgård,56.061827,12.735838,1,,
9021012083341000,Helsingborg Tycho Braheskolan,56.045516,12.711351,1,,
9021012083345000,Helsingborg Rågångsgatan Ö,56.031536,12.718955,1,,
9021012083346000,Helsingborg Kungshult,56.089555,12.688079,1,,
9021012083347000,Helsingborg Vasatorpsvägen Västra,56.062302,12.719947,1,,
9021012083348000,Helsingborg Sundstorget,56.048266,12.690996,1,,
9021012083349000,Helsingborg Kompassen,56.061688,12.680950,1,,
9021012083350000,Helsingborg Tunderfeltsgatan,56.075143,12.700973,1,,
9021012083351000,Helsingborg Pålsjö kyrkogård,56.072392,12.698752,1,,
9021012083352000,Helsingborg Pålsjö Östra,56.071047,12.693189,1,,
9021012083353000,Väla IKEA,56.092839,12.764152,1,,
9021012083354000,Helsingborg Pålsjö Park,56.066938,12.692734,1,,
9021012083355000,Helsingborg Långåkersgatan,56.063795,12.693533,1,,
9021012083358000,Väla Centrum,56.091985,12.752148,1,,
9021012083360000,Helsingborg Slottshöjden,56.051772,12.699978,1,,
9021012083361000,Helsingborg Västra Berga skola,56.073781,12.708249,1,,
9021012083362000,Helsingborg Sigurd Rings gata,56.003795,12.752827,1,,
9021012083363000,Helsingborg Maria Park,56.082597,12.687966,1,,
9021012083364000,Helsingborg Fredriksdalsplatsen,56.054923,12.702359,1,,
9021012083365000,Helsingborg Tingshuset,56.040187,12.698839,1,,
9021012083367000,Helsingborg Ystadsgatan,56.041849,12.723139,1,,
9021012083369000,Helsingborg Grännagatan,56.040367,12.727495,1,,
9021012083370000,Helsingborg Söderköpingsgatan,56.039852,12.731357,1,,
9021012083371000,Helsingborg Syréngatan,56.038125,12.739231,1,,
9021012083372000,Helsingborg Ultunagatan,56.038522,12.745797,1,,
9021012083374000,Helsingborg Lördagsgatan,56.042097,12.751149,1,,
9021012083375000,Helsingborg S. Hunnetorpsvägen,56.041831,12.745150,1,,
9021012083376000,Helsingborg Adolfsberg,56.045131,12.745964,1,,
9021012083378000,Helsingborg Margaretaplatsen,56.055044,12.684700,1,,
9021012083382000,Helsingborg Gåsebäck,56.034891,12.706183,1,,
9021012083384000,Helsingborg Kungshultsvägen,56.087485,12.698967,1,,
9021012083385000,Helsingborg Strandbadsvägen,56.022045,12.711369,1,,
9021012083386000,Helsingborg Kungsljusgatan,56.032174,12.758674,1,,
9021012083387000,Helsingborg Granitgatan,56.075520,12.758946,1,,
9021012083393000,Helsingborg Hammarbergsgatan,56.064883,12.699630,1,,
9021012083394000,Helsingborg Ringstorpsplatsen,56.064976,12.700827,1,,
9021012083398000,Helsingborg Hjortshögsvägen,56.066034,12.786842,1,,
9021012083399000,Helsingborg Tostarp,56.069227,12.786962,1,,
9021012083400000,Bårslöv Gamla nyckeln,56.006012,12.810197,1,,
9021012083408000,Helsingborg Slottsvångsskolan,56.049366,12.700766,1,,
9021012083410000,Helsingborg Utmarksgatan,56.068519,12.699498,1,,
9021012083421000,Frillestadsvägen,56.011146,12.835945,1,,
9021012083422000,Helsingborg Mejerigatan,56.050314,12.714178,1,,
9021012083430000,Helsingborg Ragnvalla,56.048828,12.742476,1,,
9021012083432000,Helsingborg Växjögatan,56.042721,12.732525,1,,
9021012083433000,Helsingborg Hästhagsvägen,56.022449,12.718156,1,,
9021012083438000,Helsingborg Senderöd,56.077159,12.692519,1,,
9021012083439000,Helsingborg Gravörgatan,56.020163,12.754118,1,,
9021012083440000,Helsingborg Raahus,56.014886,12.740978,1,,
9021012083441000,Helsingborg Långeberga Norra,56.046826,12.778582,1,,
9021012083444000,Helsingborg Gevärsgatan,56.071424,12.713900,1,,
9021012083445000,Helsingborg Långeberga Södra,56.042480,12.780898,1,,
9021012083453000,Helsingborg Lussebäcken kiosken,56.021675,12.724572,1,,
9021012083455000,Ödåkra Frostgatan,56.105763,12.760623,1,,
9021012083458000,Helsingborg Spireagatan,56.031184,12.750647,1,,
9021012083460000,Helsingborg Långeberga Ind.omr,56.044512,12.780594,1,,
9021012083462000,Helsingborg Långebergavägen,56.032771,12.780005,1,,
9021012083463000,Helsingborg Stadsgränsen,56.031027,12.766115,1,,
9021012083464000,Lydinge gård,56.090201,12.871150,1,,
9021012083465000,Väla by,56.084377,12.746482,1,,
9021012083466000,Helsingborg Funkisvägen,56.083476,12.748900,1,,
9021012083467000,Helsingborg Odalvägen,56.082428,12.753033,1,,
9021012083469000,Helsingborg Busspunkten,56.076934,12.753982,1,,
9021012083470000,Helsingborg Pinnmogatan,56.072631,12.747896,1,,
9021012083471000,Helsingborg Makadamgatan,56.069769,12.751336,1,,
9021012083472000,Helsingborg Välavägen,56.068580,12.754129,1,,
9021012083473000,Helsingborg NSR,56.067965,12.757567,1,,
9021012083475000,Helsingborg Lagergatan,56.064322,12.758160,1,,
9021012083476000,Helsingborg Bruces skog,56.064044,12.751660,1,,
9021012083477000,Helsingborg Österleden,56.063718,12.745406,1,,
9021012083479000,Helsingborg Fornminnesgatan,56.006648,12.769747,1,,
9021012083480000,Helsingborg Torbornavägen S,56.004488,12.771793,1,,
9021012083481000,Helsingborg Stenbrovägen 6,56.004307,12.776137,1,,
9021012083483000,Helsingborg Nordisk Transport,56.009100,12.776612,1,,
9021012083484000,Helsingborg Stenbrovägen 50,56.011337,12.776613,1,,
9021012083485000,Helsingborg Börje Jönssons,56.014624,12.774351,1,,
9021012083486000,Helsingborg Finax,56.016281,12.771221,1,,
9021012083487000,Helsingborg Ramlösa Vatten,56.016407,12.769398,1,,
9021012083488000,Helsingborg Kullens Bröd,56.013207,12.771542,1,,
9021012083491000,Helsingborg Diabasgatan,56.078156,12.761245,1,,
9021012083494000,Helsingborg Västergård,56.041574,12.753983,1,,
9021012083497000,Helsingborg Norra Vallgatan,56.051982,12.699046,1,,
9021012083498000,Helsingborg Mariastaden,56.089188,12.698074,1,,
9021012083499000,Helsingborg Mariehäll,56.081334,12.702017,1,,
9021012083500000,Helsingborg Raus Vång,56.005329,12.754919,1,,
9021012083501000,Gluggstorpsvägen,55.923712,12.932006,1,,
9021012083502000,Strömsnäsvägen,55.937023,12.949542,1,,
9021012083503000,Norrabyvägen,55.942223,12.949399,1,,
9021012083504000,Kingelstads skola,55.955109,12.946735,1,,
9021012083505000,Kingelstad Bäcklunds bil,55.964088,12.943750,1,,
9021012083506000,Kingelstad Folmestorpsvägen,55.970983,12.940420,1,,
9021012083507000,Rönnarpsvägen,55.932440,12.952248,1,,
9021012083513000,Tjutebro,55.980226,12.935633,1,,
9021012083514000,Helsingborg Brytstugan,56.052659,12.724588,1,,
9021012083515000,Helsingborg Österleden södra,56.002258,12.759732,1,,
9021012083907000,Helsingborg Garverigatan,56.001076,12.747204,1,,
9021012083908000,Helsingborg Ragnvallagården,56.047576,12.747087,1,,
9021012083913000,Helsingborg Ridhuset,56.064552,12.764567,1,,
9021012083922000,Helsingborg Husensjö Läkargrupp,56.049824,12.727641,1,,
9021012083933000,Helsingborg Rådmansgatan,56.063129,12.693121,1,,
9021012083955000,Helsingborg Oscar Trapps väg,56.060346,12.710033,1,,
9021012083960000,Helsingborg Fredrik Cösters gata,56.060786,12.695382,1,,
9021012083964000,Helsingborg Dunkerska Sjukhemmet,56.062220,12.684569,1,,
9021012083967000,Helsingborg Senderöds koloniomr,56.076120,12.697295,1,,
9021012083970000,Helsingborg Läkargr Planteringen,56.028479,12.708880,1,,
9021012083971000,Helsingborg Fredsgatan,56.025931,12.712983,1,,
9021012083973000,Helsingborg Skonaren,55.998260,12.742713,1,,
9021012083975000,Helsingborg S:t Clemensgatan,56.050632,12.699315,1,,
9021012083977000,Helsingborg Viskgatan,56.042231,12.715082,1,,
9021012083981000,Helsingborg Larmvägen,56.062122,12.720299,1,,
9021012083984000,Helsingborg Ostronet,56.041287,12.712187,1,,
9021012083987000,Helsingborg Torbornavägen N,56.009178,12.767030,1,,
9021012083988000,Helsingborg Drottninghög centrum,56.061645,12.727083,1,,
9021012083996000,Välluv,56.021856,12.800691,1,,
9021012950039000,Helsingborg NO 3,56.039006,12.875907,1,,
9021012950040000,Helsingborg NO 4,55.969233,12.930472,1,,
9021012950041000,Helsingborg NO 5,55.943856,12.841390,1,,
9021012950042000,Helsingborg NO 6,56.123462,12.660880,1,,
9021012950043000,Helsingborg NO 7,56.118852,12.788285,1,,
9021012950044000,Helsingborg NO 8,56.180711,12.765223,1,,
9021012950176000,Helsingborg NO 2,56.078142,12.815026,1,,
9021012084001000,Höganäs Kyrkogården,56.198144,12.582325,1,,
9021012084002000,Höganäs Bruksskolan,56.201612,12.553499,1,,
9021012084003000,Höganäs Ljunghaga,56.191566,12.559685,1,,
9021012084004000,Höganäs Långaröd,56.192428,12.574762,1,,
9021012084006000,Höganäs Väsbygatan,56.199548,12.578306,1,,
9021012084007000,Hustoftavägen,56.208572,12.635980,1,,
9021012084008000,Ö Lerberget N,56.181122,12.564434,1,,
9021012084009000,Ö Lerberget centrum,56.176088,12.564360,1,,
9021012084011000,Ö Lerberget S,56.172790,12.565379,1,,
9021012084012000,Höganäs Möllegatan,56.192399,12.556520,1,,
9021012084013000,Svanebäck Musselvägen,56.159536,12.567849,1,,
9021012084014000,Höganäs Lexikonvägen,56.190539,12.564381,1,,
9021012084015000,Viken Fortet,56.151749,12.569728,1,,
9021012084016000,Viken centrum,56.146508,12.579248,1,,
9021012084017000,Björkeröd Svartelandsvägen,56.212051,12.697935,1,,
9021012084018000,Viken Kyrkogården,56.139792,12.588068,1,,
9021012084019000,Höganäs Tivolihuset,56.200382,12.567564,1,,
9021012084020000,Höganäs Smältaregatan,56.209796,12.560594,1,,
9021012084021000,Höganäs Stallgatan,56.198316,12.574476,1,,
9021012084022000,Höganäs Ruuthsesplanaden,56.199891,12.572151,1,,
9021012084023000,Höganäs Gruvgatan,56.208336,12.555638,1,,
9021012084024000,Höganäs Sandflyget,56.211405,12.553443,1,,
9021012084025000,Höganäs Margreteberg,56.215604,12.549072,1,,
9021012084026000,Strandbaden Höllviksgatan,56.217965,12.546242,1,,
9021012084027000,Strandbaden Strömstadsgatan,56.224296,12.543027,1,,
9021012084028000,Strandbaden Tallbacken,56.229811,12.544606,1,,
9021012084029000,Nyhamnsläge St Skärsvägen,56.234968,12.543909,1,,
9021012084030000,Nyhamnsläge centrum,56.241890,12.539883,1,,
9021012084031000,Nyhamnsläge Måns Jons väg,56.246355,12.536807,1,,
9021012084032000,Nyhamnsläge Bräckevägen,56.252571,12.534323,1,,
9021012084033000,Krapperup Lerhamnsvägen,56.256807,12.531701,1,,
9021012084034000,Krapperup slottet,56.261628,12.531887,1,,
9021012084035000,Mölle Möllehässle,56.270791,12.531087,1,,
9021012084036000,Mölle Vattenmöllevägen,56.272156,12.521538,1,,
9021012084037000,Mölle Ryhuset,56.278174,12.510635,1,,
9021012084038000,Mölle busstation,56.282000,12.499109,1,,
9021012084039000,Höganäs Bruksgatan,56.206066,12.558184,1,,
9021012084040000,Nyhamnsläge Nyhamnsskolan,56.243738,12.541807,1,,
9021012084041000,Höganäs Steglinge,56.201306,12.584010,1,,
9021012084042000,Jonstorp Jonstorpsskolan,56.229333,12.673434,1,,
9021012084043000,Jonstorp Mjöhultsvägen norra,56.214132,12.678190,1,,
9021012084044000,Gategårdsvägen,56.206784,12.675097,1,,
9021012084045000,Gunnestorpsvägen,56.192936,12.675098,1,,
9021012084047000,Höganäs Verkstadsgatan,56.213259,12.557963,1,,
9021012084058000,Jonstorp Mjöhultsvägen,56.218721,12.680574,1,,
9021012084059000,Jonstorp centrum,56.227086,12.674149,1,,
9021012084060000,Jonstorp Möllebacken,56.221892,12.674138,1,,
9021012084061000,Jonstorp Ö,56.218350,12.681168,1,,
9021012084062000,Björkeröd Bäckaskogsvägen,56.215132,12.690751,1,,
9021012084063000,St Snorröd,56.212827,12.701646,1,,
9021012084064000,Farhult k:a,56.215402,12.711855,1,,
9021012084065000,Farhult Farhultsbaden,56.218709,12.714040,1,,
9021012084066000,Farhult byn,56.221535,12.721763,1,,
9021012084067000,Farhult Årnackevägen,56.223098,12.725702,1,,
9021012084068000,N Häljaröd Sjömadsvägen,56.223440,12.732578,1,,
9021012084069000,N Häljaröd Rönnen,56.222596,12.743839,1,,
9021012084070000,Norra Häljaröd Ö,56.221521,12.756328,1,,
9021012084071000,Gustavsvik,56.219135,12.761969,1,,
9021012084072000,Görslövsvägen,56.201398,12.674617,1,,
9021012084073000,Smedstorp Louisefredsvägen,56.249386,12.561438,1,,
9021012084074000,Brunnby kyrkby,56.261022,12.575130,1,,
9021012084075000,Arild Arildsvägen,56.266756,12.579265,1,,
9021012084076000,Arild Nabbavägen,56.270795,12.578407,1,,
9021012084077000,Arild bussplatsen,56.273153,12.577159,1,,
9021012084078000,Fjälastorp Falkamöllan,56.262109,12.591992,1,,
9021012084079000,Fjälastorp Hembygden,56.260322,12.602088,1,,
9021012084080000,Fjälastorp Skäret,56.256857,12.613356,1,,
9021012084081000,Bölsåkra,56.254993,12.620162,1,,
9021012084082000,Bökebäck,56.257133,12.634917,1,,
9021012084083000,Bökebäcksgården,56.255804,12.641598,1,,
9021012084084000,Svanshall Stenbrottet,56.252625,12.656808,1,,
9021012084085000,Svanshall Handelsmansväg,56.249587,12.662078,1,,
9021012084086000,Rekekroken N,56.245007,12.667150,1,,
9021012084087000,Jonstorp Gerdas äng,56.232893,12.674563,1,,
9021012084088000,Jonstorp S,56.217844,12.680000,1,,
9021012084089000,Jonstorp Åhusen,56.213057,12.677955,1,,
9021012084091000,Mjöhult norra,56.183486,12.676287,1,,
9021012084092000,Mjöhult järnvägen,56.176684,12.678790,1,,
9021012084093000,Mjöhult Östrabyvägen,56.173800,12.678477,1,,
9021012084097000,Väsby Tågalycke,56.199313,12.600346,1,,
9021012084098000,Nygård,56.196376,12.612535,1,,
9021012084099000,Ingelsträde Mandelgrensv,56.188579,12.627993,1,,
9021012084100000,Ingelsträde Brandstorpsv,56.185152,12.631339,1,,
9021012084101000,Ingelsträde Våtamåsavägen,56.185852,12.636905,1,,
9021012084102000,Hulta V,56.183584,12.661052,1,,
9021012084103000,Hulta Nybovägen,56.183192,12.675328,1,,
9021012084104000,Lerberget,56.176059,12.563251,1,,
9021012084106000,Höganäs Pottenborgsvägen,56.201867,12.593136,1,,
9021012084107000,Höganäs Ljungvägen,56.191517,12.562622,1,,
9021012084108000,Höganäs Kullagymnasiet,56.195872,12.563866,1,,
9021012084109000,Görslöv,56.213428,12.652963,1,,
9021012084110000,Höganäs Skolgatan,56.200442,12.576038,1,,
9021012084111000,Höganäs Gamsgatan,56.193626,12.575903,1,,
9021012084112000,Höganäs Sälgen,56.201115,12.566067,1,,
9021012084116000,Höganäs Busstorget,56.201057,12.558366,1,,
9021012084117000,Rekekroken S,56.237423,12.670707,1,,
9021012084118000,Höganäs Sjöcrona,56.196699,12.576579,1,,
9021012084119000,Höganäs S:t Andreas Väg,56.202938,12.591466,1,,
9021012084123000,Höganäs Sporthall,56.185862,12.565259,1,,
9021012084125000,Brunnby Görsavägen,56.255685,12.571027,1,,
9021012084129000,Höganäs Arnbergs plats,56.199763,12.560104,1,,
9021012084130000,Höganäs Brorsbacke,56.200183,12.565485,1,,
9021012084131000,Höganäs Stallgården,56.197866,12.576868,1,,
9021012084132000,Höganäs Rosengatan,56.195090,12.566237,1,,
9021012084133000,Höganäs Kyrkogatan,56.198516,12.557098,1,,
9021012084134000,Höganäs Köpmansgatan,56.201016,12.552050,1,,
9021012084135000,Höganäs Malvagatan,56.194155,12.573086,1,,
9021012084139000,Höganäs Kvickbadet,56.199412,12.554266,1,,
9021012084140000,Höganäs Idrottsplatsen,56.196067,12.558643,1,,
9021012084141000,Höganäs Väsbyhemmet,56.205546,12.589829,1,,
9021012084142000,Höganäs Maskingatan,56.198353,12.578664,1,,
9021012084143000,Mölle Kullagården,56.299422,12.467524,1,,
9021012084144000,Kullens fyr,56.301404,12.457055,1,,
9021012084145000,Ransviksvägen,56.296383,12.477793,1,,
9021012084146000,Mölle Grindstugan,56.288987,12.495225,1,,
9021012084165000,Brunnby skola,56.261924,12.577330,1,,
9021012950068000,Höganäs NO 2,56.196527,12.714907,1,,
9021012950069000,Höganäs NO 3,56.170723,12.614747,1,,
9021012950076000,Höganäs NO 1,56.253782,12.560808,1,,
9021012066001000,Ramstorp Fulltofta,55.890361,13.626082,1,,
9021012066002000,Östraby Väg 13,55.756340,13.681537,1,,
9021012066003000,Östraby kvarn väg 13,55.766664,13.674378,1,,
9021012066004000,Omset svängen,55.783486,13.723311,1,,
9021012066005000,Oderup,55.765893,13.723166,1,,
9021012066006000,Östraby gamla vägen,55.759791,13.686288,1,,
9021012066007000,Önneköp Torget,55.786507,13.871916,1,,
9021012066009000,Hörby Trädgårdsmästeriet,55.848894,13.640988,1,,
9021012066010000,Fulltoftavägen,55.850462,13.617393,1,,
9021012066011000,Ludvigsborg Kvarndammsgatan,55.904460,13.607571,1,,
9021012066012000,Häggenäs,55.903515,13.588946,1,,
9021012066013000,Fulltofta riksvägen,55.873441,13.632959,1,,
9021012066014000,Osbyholm,55.848964,13.606427,1,,
9021012066015000,Sjöviksvägen,55.842543,13.582568,1,,
9021012066016000,Sextorp,55.838895,13.571680,1,,
9021012066017000,Almarkaröd,55.824702,13.716863,1,,
9021012066018000,Råby,55.829370,13.701386,1,,
9021012066019000,Hörby Magistergatan,55.850257,13.651549,1,,
9021012066020000,Ekeröd,55.902817,13.732365,1,,
9021012066021000,Kronekull,55.898881,13.617129,1,,
9021012066022000,Långaröd skola,55.787171,13.843488,1,,
9021012066023000,Hörby Vårdcentral,55.845479,13.671214,1,,
9021012066024000,Råby gård,55.838491,13.680122,1,,
9021012066025000,Gamlegård,55.835526,13.683206,1,,
9021012066026000,Köinge,55.836227,13.706267,1,,
9021012066027000,Tågarp,55.839665,13.744351,1,,
9021012066029000,Härröd,55.841109,13.782576,1,,
9021012066030000,Frännarp,55.828265,13.793697,1,,
9021012066031000,Omset korset,55.783188,13.715834,1,,
9021012066032000,Satsarp,55.778548,13.722427,1,,
9021012066034000,Bessinge,55.812592,13.782972,1,,
9021012066035000,Henset,55.796953,13.807226,1,,
9021012066036000,Långaröd,55.787274,13.843180,1,,
9021012066037000,Oderup backen,55.764761,13.717330,1,,
9021012066038000,Gummarp,55.801718,13.777794,1,,
9021012066039000,Pärup,55.804232,13.750148,1,,
9021012066040000,Ö Sallerup,55.800611,13.730355,1,,
9021012066042000,Sallerup V,55.797582,13.712240,1,,
9021012066043000,Ulatofta,55.793641,13.694017,1,,
9021012066045000,Georgshill,55.841592,13.656419,1,,
9021012066046000,Råby Vång,55.835976,13.658421,1,,
9021012066047000,Headal,55.829246,13.660404,1,,
9021012066048000,Karlsfält,55.819869,13.663649,1,,
9021012066049000,Årröd N,55.813051,13.666274,1,,
9021012066050000,Årröd S,55.805846,13.667275,1,,
9021012066051000,Farbored,55.798687,13.671527,1,,
9021012066052000,Korsholm N,55.792241,13.674878,1,,
9021012066055000,Östraby gästis,55.756963,13.691062,1,,
9021012066057000,Framnäs,55.754483,13.695736,1,,
9021012066058000,Emausvägen,55.749836,13.699269,1,,
9021012066059000,Rumpebacken,55.742460,13.701386,1,,
9021012066068000,Hörby Karlslund,55.849239,13.631515,1,,
9021012066070000,Årröd smedjan,55.801905,13.670043,1,,
9021012066071000,Ö Sallerup Radiomasten,55.808314,13.728429,1,,
9021012066072000,Ö Sallerup Kyrkan,55.801210,13.729111,1,,
9021012066075000,Hörby busstation,55.855576,13.671155,1,,
9021012066076000,Ludvigsborg Granliden,55.902932,13.601485,1,,
9021012066077000,Kölleröd,55.802286,13.795453,1,,
9021012066078000,Hörby Gamla torg,55.851011,13.660801,1,,
9021012066080000,Önneköp Farhult,55.786659,13.863889,1,,
9021012066189000,Fulltofta naturcentrum,55.888685,13.641042,1,,
9021012950094000,Hörby NO 1,55.896413,13.638070,1,,
9021012950136000,Hörby NO 1 kväll,55.900875,13.648167,1,,
9021012950137000,Hörby NO 2,55.863709,13.837217,1,,
9021012950138000,Hörby NO 3,55.772055,13.672840,1,,
9021012950143000,HB03 Utökad,55.771761,13.671964,1,,
9021012950144000,HB01 Utökad,55.896509,13.629254,1,,
9021012067001000,Gunnarp,56.006575,13.649524,1,,
9021012067003000,Ekeröd Norra Rörumsvägen,55.962091,13.573072,1,,
9021012067004000,Höör Pumpvägen,55.951807,13.561815,1,,
9021012067005000,Höör Yxnaholma,55.938772,13.521320,1,,
9021012067010000,Skånes Djurpark,55.962915,13.538476,1,,
9021012067012000,Höör Vårdcentralen,55.930839,13.547136,1,,
9021012067014000,Höör Alléplan,55.928234,13.538359,1,,
9021012067015000,Norra Rörum affären,56.016945,13.508428,1,,
9021012067016000,Länghult,55.998392,13.478236,1,,
9021012067017000,Hallaröd,55.978574,13.449928,1,,
9021012067018000,Tjörnarps station,56.000230,13.629966,1,,
9021012067019000,Munkarps By,55.946695,13.450680,1,,
9021012067020000,Maglasäte,55.940043,13.504165,1,,
9021012067022000,Höör Stenskogsvägen,55.930417,13.542728,1,,
9021012067023000,Höör Gamla torg,55.930379,13.546043,1,,
9021012067024000,Nyby Nybyvägen,55.902626,13.522119,1,,
9021012067025000,Karlsvik,55.902374,13.537678,1,,
9021012067026000,Sätofta Styrmansvägen,55.907867,13.551560,1,,
9021012067027000,Höör Karlslund,55.920232,13.548762,1,,
9021012067028000,Orupssjukhuset,55.909868,13.527483,1,,
9021012067029000,Jägersbo,55.908155,13.564850,1,,
9021012067031000,Snogeröd affären,55.839297,13.492354,1,,
9021012067032000,Vännberga,55.846631,13.446598,1,,
9021012067033000,Brostorp,55.845686,13.462049,1,,
9021012067034000,Snogeröd riksvägen,55.839701,13.499004,1,,
9021012067035000,Ringsjö Värdshus,55.866162,13.496780,1,,
9021012067036000,Finnhult,55.832243,13.514323,1,,
9021012067039000,Höör Ringsjöhöjden,55.914998,13.547018,1,,
9021012067040000,Höör Munkarpsvägen,55.937023,13.533603,1,,
9021012067041000,Frostavallen Ullstorp,55.977387,13.533095,1,,
9021012067042000,Rolsberga,55.806464,13.466482,1,,
9021012067043000,Fogdarp,55.829618,13.540895,1,,
9021012067046000,Höör Ringsjövägen,55.927593,13.544045,1,,
9021012067047000,Ljungstorp Ljungstorpsgården,55.908650,13.574802,1,,
9021012067048000,Höör station,55.936896,13.540878,1,,
9021012067058000,Orup Fågelbacksvägen,55.906557,13.522399,1,,
9021012067063000,Sätofta Sätoftagården,55.908584,13.556348,1,,
9021012067065000,Ljungkullen,55.944466,13.465704,1,,
9021012067067000,Bosjökloster,55.881377,13.517230,1,,
9021012067068000,Gamla Boo,55.869733,13.495098,1,,
9021012067069000,Sätofta Sätoftaskolan,55.904701,13.545490,1,,
9021012067070000,Ljungstorp,55.910629,13.575904,1,,
9021012067071000,Sätofta Fädriftsvägen,55.916727,13.575809,1,,
9021012067072000,Sövröd,55.926348,13.570808,1,,
9021012067073000,Höör Ängsgatan,55.927821,13.561922,1,,
9021012067074000,Höör Krokgatan,55.929118,13.556182,1,,
9021012067075000,Höör Friluftsvägen,55.938397,13.548729,1,,
9021012067076000,Höör Lilla Torg,55.936166,13.543209,1,,
9021012067077000,Höör Möllebacken,55.935224,13.541295,1,,
9021012067078000,Höör Parkgatan,55.933096,13.544284,1,,
9021012067079000,Höör Kvarnstensvägen,55.925503,13.529590,1,,
9021012067080000,Höör Kalkstensvägen,55.924529,13.525534,1,,
9021012067081000,Tjuvaröd,55.924017,13.522108,1,,
9021012067082000,Backagården,55.912705,13.486974,1,,
9021012067083000,Filialen,55.908915,13.492303,1,,
9021012067084000,Björkstigen,55.904966,13.503525,1,,
9021012067086000,Klinta gård,55.854170,13.499280,1,,
9021012067087000,Höör Kapellgatan,55.930236,13.538786,1,,
9021012067088000,Nötarp,56.003899,13.489208,1,,
9021012067089000,Broslätt,56.012017,13.519786,1,,
9021012067090000,Furuvägen,55.977141,13.574656,1,,
9021012067091000,Snogehall,55.949368,13.536611,1,,
9021012067092000,Frostavallen,55.967943,13.517470,1,,
9021012067093000,Långstorp,55.979715,13.521485,1,,
9021012067094000,Jularp,55.959332,13.543939,1,,
9021012067095000,Frostavallens vandrarhem,55.971230,13.517868,1,,
9021012067096000,Ekastiga gård,55.957334,13.522372,1,,
9021012067097000,Holma,55.945823,13.543158,1,,
9021012950095000,Höör NO 1,55.829836,13.470457,1,,
9021012950096000,Höör NO 3,55.949645,13.429814,1,,
9021012950097000,Höör NO 4,56.029206,13.524289,1,,
9021012950098000,Höör NO 6,56.006669,13.623238,1,,
9021012950099000,Höör NO 7,55.946089,13.592388,1,,
9021012093004000,Bjärnums station,56.291439,13.706872,1,,
9021012093028000,Hovdala slott,56.103092,13.714100,1,,
9021012093030000,Hässleholm Forellvägen,56.142231,13.717203,1,,
9021012093043000,Ballingslövs station,56.214483,13.848897,1,,
9021012093129000,Sösdala station,56.036352,13.680357,1,,
9021012093147000,Tyringe station,56.159590,13.599035,1,,
9021012093169000,Ballingslöv Ipsen,56.218160,13.858785,1,,
9021012093170000,Ballingslöv skolan,56.217255,13.869778,1,,
9021012093171000,Algustorp G Nilssons,56.217706,13.877381,1,,
9021012093172000,Algustorp Grans,56.224873,13.884180,1,,
9021012093173000,Algustorp Sjömellet,56.229483,13.889561,1,,
9021012093174000,Rävninge Backe,56.239423,13.903259,1,,
9021012093175000,Rävninge By,56.250174,13.926057,1,,
9021012093176000,Hästveda väg 23,56.272692,13.952721,1,,
9021012093177000,Hästveda Viaduktgatan,56.282361,13.933908,1,,
9021012093178000,Hästveda Hilding Anders,56.293541,13.941987,1,,
9021012093179000,Tubbarp,56.301103,13.947242,1,,
9021012093180000,Mannarp,56.307742,13.944317,1,,
9021012093181000,Hässleholm Borggårdsgatan,56.155219,13.760022,1,,
9021012093182000,Åraslöv,56.103100,13.979494,1,,
9021012093183000,Röingegården,56.143100,13.803290,1,,
9021012093184000,Hässleholm Åsvägen,56.149678,13.796752,1,,
9021012093186000,Djurabygget Dalshultaskog,56.253700,13.433948,1,,
9021012093189000,Stoby Stobyhus,56.172005,13.820351,1,,
9021012093190000,Hässleholm Drivhusvägen,56.166707,13.786105,1,,
9021012093192000,Hässleholm Bokebergsgatan,56.158366,13.756409,1,,
9021012093193000,Hässleholm Gethornskroken,56.157970,13.754193,1,,
9021012093198000,Hässleholm Gustavsgatan,56.163821,13.754348,1,,
9021012093199000,Hässleholm Norregård/T4,56.165042,13.753784,1,,
9021012093201000,Hässleholm Tillskogsgatan,56.153502,13.782292,1,,
9021012093202000,Hässleholm Backstugevägen,56.152808,13.784324,1,,
9021012093203000,Östra Ejaröd,56.034848,13.880849,1,,
9021012093204000,Hässleholm Martallsvägen,56.150620,13.792840,1,,
9021012093208000,Hässleholm Sandgrundsgatan,56.151162,13.779856,1,,
9021012093209000,Hässleholm Skördevägen,56.146599,13.767834,1,,
9021012093210000,Hässleholm Stjärnfallsvägen,56.170078,13.808922,1,,
9021012093212000,Vittsjö station,56.342112,13.663264,1,,
9021012093214000,Hässleholm Belevägen,56.169220,13.801431,1,,
9021012093215000,Hässleholm N Kringelvägen,56.162092,13.787394,1,,
9021012093216000,Finja Plantskolan,56.174081,13.688934,1,,
9021012093217000,Hörlinge,56.184175,13.677714,1,,
9021012093218000,Hörlingegården,56.194532,13.668311,1,,
9021012093219000,Hörlinge Arb Bostäder,56.198134,13.665210,1,,
9021012093220000,Hörlinge Bosabyggevägen,56.206989,13.634624,1,,
9021012093221000,Hågnarpsvägen,56.217111,13.575979,1,,
9021012093222000,Barkhultsvägen,56.221431,13.558023,1,,
9021012093223000,Röke Kädarpsvägen,56.225024,13.548153,1,,
9021012093224000,Röke Mossen,56.230368,13.533372,1,,
9021012093225000,Äljalt Rundbäck,56.238964,13.507035,1,,
9021012093226000,Äljalt Hulshultsvägen,56.240380,13.500142,1,,
9021012093227000,Blaholma by,56.247299,13.464808,1,,
9021012093228000,Blaholma kapell,56.251365,13.453264,1,,
9021012093229000,Hässleholm Bokalyckan,56.160595,13.749433,1,,
9021012093230000,Hässleholm Bokliden,56.161166,13.742222,1,,
9021012093232000,Hässleholm Drottninggatan,56.160939,13.753375,1,,
9021012093235000,Vankiva Norra,56.205764,13.742518,1,,
9021012093236000,Florröd S Florrödsvägen,56.218704,13.728779,1,,
9021012093238000,Mala Hembygdsgården,56.236045,13.713549,1,,
9021012093239000,Bjärnum Vångavägen,56.283694,13.713111,1,,
9021012093240000,Bjärnum Skolan,56.296847,13.706866,1,,
9021012093241000,Bjärnum Bävervägen,56.300168,13.703550,1,,
9021012093242000,Bjärnum Norra,56.307573,13.696323,1,,
9021012093243000,Hagsjö S,56.310471,13.693480,1,,
9021012093244000,Hagsjö N,56.317069,13.686359,1,,
9021012093245000,Vittsjö Lilla Vittsjö,56.324082,13.682495,1,,
9021012093246000,Vittsjö Parkeringen,56.330345,13.674789,1,,
9021012093247000,Vittsjö Sälgvägen,56.334096,13.667238,1,,
9021012093248000,Snärshultsvägen,56.361392,13.657683,1,,
9021012093249000,Emmaljunga Fotbollsvägen,56.390525,13.651491,1,,
9021012093251000,Ormanäsvägen,56.131877,13.739835,1,,
9021012093252000,Finjasjön,56.124293,13.738650,1,,
9021012093253000,Tormestorp Högabergsvägen,56.115376,13.740977,1,,
9021012093254000,Nävlinge,56.064243,13.836045,1,,
9021012093255000,Sösdala Dux,56.042803,13.689311,1,,
9021012093256000,Sösdala Verkstadsgatan,56.040202,13.685329,1,,
9021012093257000,Björkviken,56.119580,13.735059,1,,
9021012093258000,Vätteryd,56.014843,13.666191,1,,
9021012093263000,Vinslövs station,56.104928,13.916541,1,,
9021012093271000,Häglinge,55.991770,13.705741,1,,
9021012093273000,Hässleholm T4 Regementet,56.166514,13.758004,1,,
9021012093274000,Mala Björkedal,56.251417,13.716809,1,,
9021012093275000,Skeröd,56.264030,13.719511,1,,
9021012093276000,Bjärnum Gränsgatan,56.280643,13.713891,1,,
9021012093277000,Bjärnum Tunnbyvägen,56.302975,13.699550,1,,
9021012093278000,Vittsjö Skansen,56.351389,13.662047,1,,
9021012093279000,Emmaljunga Korgmakarevägen,56.381388,13.652476,1,,
9021012093280000,Arkelstorp Ballingslövsvägen,56.202703,13.843019,1,,
9021012093281000,Hästveda Lastaregatan,56.290730,13.938458,1,,
9021012093282000,Sibbarp N Mannarp,56.324604,13.951046,1,,
9021012093283000,Qvarngården,56.182550,13.839361,1,,
9021012093284000,Skea gård,56.182859,13.850942,1,,
9021012093285000,Kvistalånga Nybo,56.182705,13.866799,1,,
9021012093286000,Kvistalånga Fjärlövsvägen,56.185006,13.883596,1,,
9021012093287000,Laxbro bro,56.188983,13.894448,1,,
9021012093289000,N Sandby Kyrka,56.200583,13.920363,1,,
9021012093290000,Rosentorp,56.194910,13.900147,1,,
9021012093292000,Ranseröd,56.214989,13.956474,1,,
9021012093293000,Sandby,56.199765,13.916198,1,,
9021012093296000,Rävningevägen,56.209302,13.941436,1,,
9021012093299000,Hässleholm Göingegatan,56.153472,13.777755,1,,
9021012093300000,Fjärlöv,56.168889,13.923769,1,,
9021012093302000,Tormestorp Nilla Pihlblads väg,56.115347,13.740882,1,,
9021012093304000,Hästveda station,56.287655,13.934683,1,,
9021012093305000,Jägersborg,56.346891,13.875797,1,,
9021012093306000,Hässleholm Jacobsskolan,56.164415,13.776695,1,,
9021012093308000,Hässleholm Tredje Avenyen,56.155658,13.761028,1,,
9021012093312000,Hässleholm Floragatan,56.149436,13.762840,1,,
9021012093313000,Hässleholm Österås,56.148414,13.778778,1,,
9021012093314000,Hässleholm Nyckelvägen,56.167643,13.737898,1,,
9021012093315000,Hässleholm Backsläntsgatan,56.160145,13.753159,1,,
9021012093316000,Hässleholm Linnéskolan,56.155018,13.779975,1,,
9021012093317000,Hässleholm Östervärnskolan,56.147075,13.796341,1,,
9021012093320000,Hässleholm Klintvägen,56.148520,13.788025,1,,
9021012093321000,Hässleholm Ridskolan,56.147849,13.785454,1,,
9021012093322000,Hässleholm Gulatorpsgatan,56.151893,13.779496,1,,
9021012093324000,Hässleholm Kioskvägen,56.144155,13.740270,1,,
9021012093325000,Hässleholm Persedelvägen,56.147385,13.728736,1,,
9021012093326000,Hässleholm Plutonvägen,56.148505,13.723252,1,,
9021012093327000,Hässleholm Logementsvägen,56.145234,13.722125,1,,
9021012093328000,Hässleholm Kanslihusvägen,56.146035,13.719024,1,,
9021012093329000,Hässleholm Regementsvägen,56.144721,13.721525,1,,
9021012950090000,Hässleholm NO 1,56.384997,13.741577,1,,
9021012950091000,Hässleholm NO 2,56.286853,13.696544,1,,
9021012950092000,Hässleholm NO 3,56.229816,13.525356,1,,
9021012950093000,Hässleholm NO 5,56.220408,13.813817,1,,
9021012950158000,Hässleholm NO 8,56.105107,13.929424,1,,
9021012950159000,Hässleholm NO 6,56.124877,13.820208,1,,
9021012950160000,Hässleholm NO 7,56.109999,13.532612,1,,
9021012950161000,Hässleholm NO 9,56.014827,13.695509,1,,
9021012950162000,Hässleholm NO 4,56.285103,13.956707,1,,
9021012008000000,Emmaboda,56.629710,15.535810,1,,
9021012008001000,Nybro,56.742431,15.908679,1,,
9021012008004000,Kalmar C,56.661355,16.359840,1,,
9021012076000000,Klippan Tegelbruksskolan,56.136846,13.136855,1,,
9021012076001000,Ljungbyhed Hästhagen,56.083825,13.237113,1,,
9021012076002000,Övad Bostället,56.112808,13.179398,1,,
9021012076003000,Skärholma,56.097074,13.184392,1,,
9021012076006000,Dungen,56.102255,13.177898,1,,
9021012076008000,Herrevadskloster,56.086395,13.234933,1,,
9021012076009000,Hyllstofta,56.132748,13.296161,1,,
9021012076011000,Klippans station,56.130964,13.127867,1,,
9021012076012000,Klippan Klostervägen,56.130986,13.145917,1,,
9021012076013000,Klippan Kyrkan,56.132757,13.140565,1,,
9021012076014000,Klippan Saab-Ana,56.128322,13.158263,1,,
9021012076015000,Klippan Åbyhem,56.138785,13.119374,1,,
9021012076016000,Klippan Åbyplan,56.136139,13.129084,1,,
9021012076018000,Ljungbyhed Husargatan,56.078981,13.236584,1,,
9021012076021000,Ljungbyhed Bankgatan,56.073874,13.234675,1,,
9021012076022000,Ljungbyhed busstation,56.075324,13.233566,1,,
9021012076024000,Ljungbyhed Ringgatan,56.075330,13.244634,1,,
9021012076025000,Ljungbyhed Nybrogatan,56.075918,13.250475,1,,
9021012076027000,Norra Tostarp,56.055332,13.241690,1,,
9021012076029000,Skoghuset,56.106516,13.177157,1,,
9021012076030000,Skäralid Nationalparken,56.039957,13.253271,1,,
9021012076031000,Östra Ljungby E4,56.190739,13.054203,1,,
9021012076032000,Skäralid Pensionatet,56.036326,13.257587,1,,
9021012076034000,Höga Kull,56.070867,13.256464,1,,
9021012076035000,Brandsberga Bökstorp,56.060091,13.245902,1,,
9021012076036000,Spången Skäralidsvägen,56.074459,13.258989,1,,
9021012076038000,Hyllstofta Hamburg,56.137490,13.216042,1,,
9021012076039000,Ljungbyhed Tostarp,56.048987,13.243331,1,,
9021012076040000,Klippans gymnasium,56.133449,13.134339,1,,
9021012076041000,Klippan Skogsvägen,56.139931,13.153248,1,,
9021012076042000,Östra Ljungby Ålderdomshemmet,56.197961,13.070302,1,,
9021012076043000,Östra Ljungby Busstationen,56.189774,13.065358,1,,
9021012076044000,Östra Ljungby Norra,56.199966,13.080136,1,,
9021012076045000,Östra Ljungby Brandgatan,56.188593,13.060335,1,,
9021012076046000,Östra Ljungby Lantbruksskolan,56.190777,13.066044,1,,
9021012076047000,Övad Forsmöllevägen,56.123160,13.166853,1,,
9021012076048000,Nybygget Trädgårdsmästaren,56.115713,13.179521,1,,
9021012076049000,Nybygget Vedbyvägen,56.119272,13.174550,1,,
9021012076050000,Källna Gångvadsvägen,56.209150,13.039776,1,,
9021012076051000,Källna Öjavägen,56.203570,13.043757,1,,
9021012076053000,Östra Ljungby Bläsinge Ängar,56.179312,13.063623,1,,
9021012076054000,Östra Ljungby Kristinedalsvägen,56.174515,13.066462,1,,
9021012076055000,Gråmanstorp Lyckås,56.165441,13.074226,1,,
9021012076056000,Gråmanstorp Kyrkovägen,56.151177,13.104246,1,,
9021012076057000,Gråmanstorp G:a Banvaktarst,56.148034,13.109231,1,,
9021012076058000,Gråmanstorp Bäljanebro,56.142503,13.113530,1,,
9021012076062000,Söndraby Hjälmsjövägen,56.134793,13.180215,1,,
9021012076063000,Söndraby Affären,56.135720,13.193844,1,,
9021012076064000,Elfdalen,56.134257,13.165626,1,,
9021012076065000,Klippan Kyrkogården,56.134973,13.154169,1,,
9021012076066000,Klippan Templaregatan,56.134539,13.146524,1,,
9021012076069000,Eket Öjamaden,56.221281,13.141693,1,,
9021012076070000,Mölletofta E4,56.207227,13.106397,1,,
9021012076071000,Klippan Fabriksvägen,56.129001,13.139715,1,,
9021012076072000,Klippan Ladugårdsvägen,56.128963,13.152974,1,,
9021012076073000,Östra Ljungby Kyrkbyn,56.194211,13.082382,1,,
9021012076074000,Klippan Skolgatan,56.131480,13.134701,1,,
9021012076075000,Backabo,56.139076,13.239493,1,,
9021012950070000,Klippan NO 2,56.103047,13.117492,1,,
9021012950071000,Klippan NO 3,56.113677,13.240783,1,,
9021012950072000,Klippan NO 4,56.049698,13.197995,1,,
9021012950073000,Klippan NO 7,56.175070,13.238734,1,,
9021012950123000,Klippan NO 5,56.081128,13.315008,1,,
9021012950124000,Klippan NO 6,56.054616,13.446671,1,,
9021012950156000,Klippan NO 1,56.192376,13.083092,1,,
9021012090002000,Arkelstorp Affären,56.173219,14.282974,1,,
9021012090003000,Balsby Brommagårdsvägen,56.077240,14.220670,1,,
9021012090004000,Barum Ivövägen,56.112881,14.365741,1,,
9021012090006000,Bjärlöv Järnvägskorsningen,56.105527,14.098247,1,,
9021012090009000,Bäckaskog slott,56.085591,14.350309,1,,
9021012090012000,Snårarp Kretsloppsparken,55.993275,14.119436,1,,
9021012090013000,Degeberga Hästavägen,55.842055,14.091986,1,,
9021012090014000,Degeberga Skolan,55.831801,14.089724,1,,
9021012090015000,Djurröd,55.995931,13.884757,1,,
9021012090016000,Österslöv norra,56.109311,14.262802,1,,
9021012090018000,Everöd Torget,55.899580,14.089897,1,,
9021012090019000,Kristianstad Österlen Airport,55.924141,14.074029,1,,
9021012090023000,Hammarslund Smithsväg,56.022513,14.192584,1,,
9021012090024000,Lyngby Fridhem,55.894965,14.110165,1,,
9021012090025000,Fjälkestad kyrka,56.107895,14.169594,1,,
9021012090027000,Furuboda Erwes väg,55.850770,14.215182,1,,
9021012090028000,Färlöv kyrkan,56.073439,14.083204,1,,
9021012090030000,Gärds Köpinge Idrottsplatsen,55.936382,14.152877,1,,
9021012090031000,Furuboda Kaptenens väg,55.858526,14.218906,1,,
9021012090032000,Horna Gamla stationen,55.961911,14.281085,1,,
9021012090035000,Huaröd,55.840287,13.969505,1,,
9021012090037000,Karpalund Lagerhusföreningen,56.038887,14.093217,1,,
9021012090038000,Kiaby Affären,56.066749,14.330852,1,,
9021012090041000,Everöd Medspårsvägen,55.899782,14.082534,1,,
9021012090042000,Kristianstad C,56.031875,14.151364,1,,
9021012090047000,Gringelstad Syster Karins väg,55.932535,14.128126,1,,
9021012090048000,Kristianstad Odalkyrkan,56.020623,14.138308,1,,
9021012090052000,Kristianstad Vilans skola,56.020221,14.145751,1,,
9021012090053000,Kristianstad Björkhemsvägen,56.030092,14.181455,1,,
9021012090055000,Yngsjö Ängar,55.865207,14.211844,1,,
9021012090056000,Kristianstad Arenan,56.023881,14.160832,1,,
9021012090057000,Kristianstad J A Hedlunds väg,56.030553,14.185077,1,,
9021012090059000,Maglehem Lillehemsvägen,55.771843,14.140998,1,,
9021012090061000,Tallgården,56.058888,14.313525,1,,
9021012090063000,Hasselbacken,55.994551,14.046230,1,,
9021012090067000,Åhus Täppetleden,55.949998,14.283091,1,,
9021012090068000,Venestad Årrödsvägen,55.987970,13.927796,1,,
9021012090069000,Tings Nöbbelöv,55.957002,14.066461,1,,
9021012090070000,Jamboree,55.982387,14.299682,1,,
9021012090071000,Bjärlöv Norra,56.127005,14.094384,1,,
9021012090073000,Ovesholm,55.993425,14.036616,1,,
9021012090074000,Rickarum skolan,55.994229,13.822683,1,,
9021012090076000,Kristianstad Centralskolan,56.033296,14.164314,1,,
9021012090077000,Sandhusen,55.929348,13.940955,1,,
9021012090081000,Skepparslöv Kyrkan,56.013851,14.069374,1,,
9021012090086000,Sätaröd,55.940289,13.905616,1,,
9021012090087000,Lyngby Banvallen,55.905635,14.107428,1,,
9021012090088000,Tollarp biblioteket,55.934328,13.974643,1,,
9021012090089000,Tollarp torget,55.932168,13.978009,1,,
9021012090091000,Träne Prästgården,55.987536,13.991149,1,,
9021012090092000,Hammarslund Hammarspyntsvägen,56.016901,14.194806,1,,
9021012090097000,Vinnö Stationsvägen,56.052270,14.087295,1,,
9021012090098000,Tollarp Torvtäktsvägen,55.938690,13.976838,1,,
9021012090099000,Vittskövle Allégården,55.863572,14.143273,1,,
9021012090100000,Viby Björket,56.020187,14.219609,1,,
9021012090101000,Vinnö Gyllingvägen,56.049203,14.088330,1,,
9021012090103000,Karpalund Stationsvägen,56.042261,14.090388,1,,
9021012090104000,Torseke,56.088382,14.139156,1,,
9021012090106000,Kristianstad Hönedalsvägen,56.037293,14.163599,1,,
9021012090108000,Vittskövle Slottet,55.854366,14.136080,1,,
9021012090110000,Vånga Kyrkan,56.180502,14.374514,1,,
9021012090111000,Hedentorp Falkvägen,56.008159,14.151945,1,,
9021012090112000,Vä E22,56.000879,14.100895,1,,
9021012090113000,Maltesholm Höge väg,55.900791,13.995731,1,,
9021012090114000,Vä Talldalsskolan,55.996670,14.085596,1,,
9021012090117000,Åhus Järnvägsgatan,55.927021,14.302792,1,,
9021012090118000,Åhus Äspetvägen,55.917409,14.288128,1,,
9021012090119000,Åhus Skalbaggevägen,55.934567,14.302883,1,,
9021012090120000,Äsphult,55.978708,13.799540,1,,
9021012090121000,Ö Sönnarslöv,55.884521,14.017154,1,,
9021012090124000,Kristianstad Nya Boulevarden,56.029795,14.153698,1,,
9021012090125000,Österslöv Kyrkan,56.099365,14.249733,1,,
9021012090128000,Vittskövle Killegropsvägen,55.871838,14.134771,1,,
9021012090130000,Furustad utkiksplatsen,56.151404,14.380295,1,,
9021012090131000,Kristianstad Härlövsängaleden,56.045113,14.155884,1,,
9021012090132000,Kristianstad Svetsarevägen,56.053859,14.161739,1,,
9021012090133000,Torsebro Färlövsvägen,56.100199,14.116370,1,,
9021012090134000,Bjärlöv Övarpsvägen,56.117158,14.091605,1,,
9021012090135000,Kristianstad Kyrkogården,56.030595,14.166482,1,,
9021012090136000,Furustad badplatsen,56.162136,14.379447,1,,
9021012090137000,Söndremark,56.168833,14.376011,1,,
9021012090138000,Tings Nöbbelöv Stärkan,55.944722,14.068308,1,,
9021012090140000,Eskilstorp Vittskövlevägen,55.861044,14.091246,1,,
9021012090141000,Olseröd Olserödsvägen,55.797782,14.147992,1,,
9021012090142000,Degeberga Skaddevägen,55.837502,14.090144,1,,
9021012090143000,Olseröd Hasslavägen,55.786330,14.140763,1,,
9021012090144000,Österlia by,55.810846,14.138886,1,,
9021012090146000,Kristianstad Centralsjukhuset,56.029367,14.174202,1,,
9021012090147000,Kristianstad Sommarlust,56.041794,14.163664,1,,
9021012090148000,Kristianstad Regionmuséet,56.031857,14.156771,1,,
9021012090150000,Kristianstad Norretullsvägen,56.037356,14.152172,1,,
9021012090152000,Kristianstad Nygårdsvägen,56.047590,14.154398,1,,
9021012090154000,Kristianstad Hjärtebackes väg,56.051018,14.155455,1,,
9021012090155000,Önnestads station,56.060572,14.029126,1,,
9021012090156000,Fjälkinge station,56.043356,14.279687,1,,
9021012090157000,Kristianstad Drabantvägen,56.056259,14.155087,1,,
9021012090158000,Kristianstad Vemmenhögsgatan,56.058939,14.151344,1,,
9021012090159000,Kristianstad Albogatan,56.062190,14.158687,1,,
9021012090160000,Kristianstad Göingegatan,56.062089,14.155801,1,,
9021012090161000,Kristianstad Näsby Vårdcentral,56.059987,14.162554,1,,
9021012090162000,Kristianstad Tvedegårdsvägen,56.058610,14.165711,1,,
9021012090164000,Kristianstad Gamlegården,56.058642,14.164730,1,,
9021012090165000,Kristianstad Högskolan,56.046887,14.146163,1,,
9021012090166000,Kristianstad Lyckans Höjd,56.037937,14.160699,1,,
9021012090167000,Kristianstad Ö.Kaserngatan,56.036013,14.159209,1,,
9021012090169000,Torsebro Södra Infarten,56.096642,14.129575,1,,
9021012090170000,Kristianstad Hästtorget,56.029103,14.161027,1,,
9021012090171000,Kristianstad Rosengårdsvägen,56.044665,14.154668,1,,
9021012090172000,Hedentorp Sibyllevägen,56.013237,14.152786,1,,
9021012090173000,Hedentorp Lunnavägen,56.015110,14.151134,1,,
9021012090174000,Huaröd Skönabäcksvägen,55.843649,13.969043,1,,
9021012090175000,Skorphult,55.852340,13.977768,1,,
9021012090176000,Kristianstad Charlottesborg,56.021224,14.131594,1,,
9021012090179000,Karpalund Byggmästare Nyström,56.025562,14.102694,1,,
9021012090181000,Vinnö Araslövsvägen,56.055764,14.085983,1,,
9021012090182000,Vinnö Färlövs gård,56.058462,14.084964,1,,
9021012090186000,Balsby Moltareliden,56.073205,14.210123,1,,
9021012090193000,Håstads Ljungaväg,56.081099,14.228880,1,,
9021012090194000,Österslöv Vårvägen,56.093037,14.240877,1,,
9021012090195000,Österslöv Odders väg,56.096778,14.247636,1,,
9021012090196000,Karsholmsvägen,56.114850,14.263320,1,,
9021012090197000,Brusåsvägen,56.117985,14.262551,1,,
9021012090198000,Flackarpsvägen,56.122837,14.263450,1,,
9021012090199000,Ekestadsvägen,56.130281,14.261078,1,,
9021012090200000,Gårrö Gamla Järnvägsstationen,56.148616,14.260519,1,,
9021012090201000,Gårrö Allarp,56.155568,14.267740,1,,
9021012090202000,Arkelstorp Mannestadsvägen,56.165652,14.279797,1,,
9021012090203000,Arkelstorp P-plats,56.175572,14.296166,1,,
9021012090204000,Bonnslätt Fritorpsvägen,56.177418,14.312019,1,,
9021012090205000,Bonnslätt Toppen,56.183165,14.328321,1,,
9021012090206000,Bonnslättsvägen,56.186841,14.340614,1,,
9021012090207000,Rydstorp Staversvadsvägen,56.186822,14.348910,1,,
9021012090208000,Vånga Kyrkogården,56.183236,14.369436,1,,
9021012090209000,Kristianstad Björkhemsomr,56.029385,14.176849,1,,
9021012090212000,Hammar Åängavägen,56.028784,14.196766,1,,
9021012090213000,Hammar Nosabyvägen,56.028358,14.204756,1,,
9021012090215000,Viby Hörnhem,56.018474,14.234546,1,,
9021012090217000,Viby Kyrkväg,56.014107,14.250021,1,,
9021012090218000,Stianderödsvägen,55.861498,13.988375,1,,
9021012090219000,Fribetesvägen,56.002642,14.265486,1,,
9021012090221000,Rinkaby Torvvägen,55.988072,14.271242,1,,
9021012090222000,Rinkaby Skjutfältsvägen,55.980320,14.271950,1,,
9021012090225000,Åhus Villaskolan,55.941193,14.285085,1,,
9021012090226000,Åhus Vattentornsområdet,55.934238,14.288526,1,,
9021012090228000,Åhus Repslageriet,55.923039,14.290148,1,,
9021012090230000,Åhus Rönnowskolan,55.926189,14.295032,1,,
9021012090231000,Åhus Folkets Parkgatan,55.931137,14.302952,1,,
9021012090232000,Åhus Bromsvägen,55.937304,14.311531,1,,
9021012090233000,Åhus Åhusbryggan,55.936547,14.315753,1,,
9021012090234000,Åhus Badvägen,55.936492,14.315659,1,,
9021012090235000,Åhus Berguvsvägen,55.933509,14.315630,1,,
9021012090237000,Åhus Kolonivägen,55.930598,14.314078,1,,
9021012090238000,Åhus Parkgatan,55.929148,14.307125,1,,
9021012090239000,Mariehem,56.002270,14.150850,1,,
9021012090240000,Åsumtorp,55.999872,14.150872,1,,
9021012090241000,Norra Åsum Gärds Köpingevägen,55.991211,14.155425,1,,
9021012090248000,Åhus Möllebackshemmet,55.920337,14.285230,1,,
9021012090249000,Åhus Havsvägen,55.914022,14.284422,1,,
9021012090250000,Åhus Nyponvägen,55.910915,14.275076,1,,
9021012090251000,Åhus Glansabovägen,55.906106,14.266902,1,,
9021012090252000,Yngsjö Övre Sågverksvägen,55.889716,14.241513,1,,
9021012090256000,Hedentorp Kalvholmsvägen,56.010719,14.152573,1,,
9021012090257000,Norra Åsum Lottavägen,55.994688,14.148129,1,,
9021012090258000,Norra Åsum Annedalsvägen,55.992350,14.146610,1,,
9021012090259000,Norra Åsum Wendesgymnasiet,55.990167,14.145950,1,,
9021012090260000,Norra Åsum Ridhus,55.975089,14.149576,1,,
9021012090261000,Norra Åsum Gringelstadsvägen,55.968102,14.148321,1,,
9021012090262000,Gärds Köpinge Hovbyvägen,55.949386,14.155381,1,,
9021012090263000,Gärds Köpinge Bolyckevägen,55.946205,14.157277,1,,
9021012090264000,Gärds Köpinge Brandstationen,55.943106,14.160002,1,,
9021012090265000,Gärds Köpinge Ryttmästarevägen,55.938589,14.163394,1,,
9021012090266000,Gärds Köpinge Kyrkan,55.937277,14.158681,1,,
9021012090267000,Gärds Köpinge Pyttelundsvägen,55.935255,14.147884,1,,
9021012090268000,Gringelstad Gamla hållplatsen,55.933306,14.135294,1,,
9021012090269000,Lyngsjövägen,55.930862,14.115493,1,,
9021012090270000,Furunäsvägen,55.925816,14.114369,1,,
9021012090271000,Åkeslund,55.918025,14.113525,1,,
9021012090272000,Algots väg,55.913101,14.109469,1,,
9021012090273000,Lyngby Lyngbymöllavägen,55.898936,14.108281,1,,
9021012090276000,Lyngby Gård,55.886844,14.121244,1,,
9021012090277000,Vittskövle Åhuskorset,55.858943,14.148342,1,,
9021012090278000,Vittskövle Posten,55.855254,14.145257,1,,
9021012090280000,Kristianstad Ishallen,56.043981,14.165321,1,,
9021012090281000,Öllsjö Malstenvägen,56.016456,14.093120,1,,
9021012090284000,Venestad Bygata,55.986183,13.934309,1,,
9021012090293000,Tollarp Önos,55.932339,13.982930,1,,
9021012090295000,V Vram Idrottshallen,55.929272,13.969361,1,,
9021012090297000,Arkelstorp Mannestadsboden,56.158974,14.271466,1,,
9021012090298000,Lillgården,56.100589,14.354693,1,,
9021012090299000,Balsviks Gård,56.085851,14.234534,1,,
9021012090305000,Kristianstad Österäng,56.043170,14.177295,1,,
9021012090313000,Barum Kädarpsvägen,56.138330,14.376790,1,,
9021012090314000,Hammarslund Backnejlikegatan,56.018689,14.194122,1,,
9021012090315000,Barum Oppmannavägen,56.117286,14.366058,1,,
9021012090316000,Barum Södra,56.109233,14.364848,1,,
9021012090317000,Kiaby Fruktodlingen,56.105475,14.356148,1,,
9021012090318000,Kiaby Kjugevägen,56.073475,14.345017,1,,
9021012090319000,Kiaby Skolan,56.065208,14.327426,1,,
9021012090326000,Hammarshemmet,56.032001,14.210702,1,,
9021012090327000,Hammar Gamla Fjälkingevägen,56.032884,14.219264,1,,
9021012090329000,Karlsgård,56.036421,14.243764,1,,
9021012090330000,Lyckås gård,56.039103,14.251967,1,,
9021012090333000,Fjälkinge Megalitvägen,56.044264,14.269573,1,,
9021012090337000,Ekohallen,56.041066,14.311951,1,,
9021012090340000,Norra Åsum Kyrkogården,55.988439,14.152386,1,,
9021012090341000,Yngsjö Byvägen,55.886355,14.234376,1,,
9021012090342000,Skepparslöv Åkersholmsvägen,56.016395,14.086820,1,,
9021012090345000,Vä Folkvandringen,55.995205,14.077199,1,,
9021012090346000,Munkebergsvägen,55.994729,14.065103,1,,
9021012090347000,Mansdala,55.994910,14.055061,1,,
9021012090348000,Gybjär,55.985172,13.972832,1,,
9021012090349000,Körningavägen,55.984808,13.965879,1,,
9021012090350000,Venestad Hentzels gård,55.984710,13.943241,1,,
9021012090351000,Horsaröd,55.997350,13.903297,1,,
9021012090352000,Slätthult,55.996244,13.873232,1,,
9021012090353000,Sjunnarp,55.997549,13.838126,1,,
9021012090357000,Kristianstad Parkvägen,56.039879,14.170261,1,,
9021012090358000,Härlöv Olof Mohlins väg,56.022078,14.119785,1,,
9021012090359000,Råbelöv,56.079205,14.183886,1,,
9021012090360000,Kristianstad Fredrik Bööks väg,56.039954,14.180046,1,,
9021012090361000,Kristianstad Albert Hennings väg,56.039540,14.184043,1,,
9021012090362000,Kristianstad Prästallén,56.040902,14.187917,1,,
9021012090363000,Kristianstad Frans G Bengtssons väg,56.043887,14.188835,1,,
9021012090366000,Nosaby Kyrka,56.051733,14.193226,1,,
9021012090367000,Nosaby Löparevägen,56.049114,14.203222,1,,
9021012090369000,Fjälkinge Vägförvaltningen,56.045534,14.278574,1,,
9021012090370000,Linderöd,55.931496,13.822545,1,,
9021012090373000,Kristianstad Tegelbruksvägen,56.049825,14.158989,1,,
9021012090376000,Kristianstad Emil Kleens väg,56.044707,14.180825,1,,
9021012090377000,Kristianstad Sjögården,56.044352,14.184499,1,,
9021012090378000,Tollarp Lundgrens väg,55.928917,13.967202,1,,
9021012090379000,Färlövs station,56.074481,14.087703,1,,
9021012090380000,Kristianstad Aqvarellen,56.023415,14.169690,1,,
9021012090384000,Kristianstad Fotbollsarenan,56.021839,14.164672,1,,
9021012090387000,Lundahögarna,56.072288,14.193427,1,,
9021012090389000,Kristianstad Söderportskolan,56.026777,14.156410,1,,
9021012090392000,Kristianstad Långebro,56.021860,14.146098,1,,
9021012090398000,Kristianstad Almvägen,56.039193,14.165957,1,,
9021012090399000,Kristianstad Grand Prixvägen,56.075197,14.151932,1,,
9021012090410000,Kristianstad Fröknegårdsskolan,56.053001,14.157361,1,,
9021012090413000,Kristianstad trafikplats Vilan,56.017546,14.148593,1,,
9021012090415000,Kristianstad Gamlegården centrum,56.054503,14.158148,1,,
9021012090417000,Kristianstad Skulptören,56.040377,14.173978,1,,
9021012090422000,Kristianstad Banmästarevägen,56.049126,14.169853,1,,
9021012090423000,Kristianstad Gratia Dei,56.051618,14.176280,1,,
9021012090424000,Kristianstad Pastorsvägen,56.053847,14.178450,1,,
9021012090425000,Kristianstad Mellanvägen,56.055477,14.180115,1,,
9021012090426000,Kristianstad Holmängsvägen,56.053551,14.185252,1,,
9021012090427000,Kristianstad Kupolvägen,56.049262,14.210454,1,,
9021012090428000,Kristianstad Siktvägen,56.049551,14.207810,1,,
9021012090431000,Härlöv Kabelvägen,56.015681,14.121667,1,,
9021012090432000,Öllsjö Lägervägen,56.016052,14.106127,1,,
9021012090433000,Öllsjö Kedjegatan,56.013887,14.104170,1,,
9021012090435000,Öllsjö skola,56.010552,14.098191,1,,
9021012090436000,Öllsjö Fribetet,56.009855,14.090654,1,,
9021012090438000,Vä Skärdalshemmet,56.004842,14.088023,1,,
9021012090439000,Vä Gropehusvägen,56.002274,14.086822,1,,
9021012090440000,Vä Lundbecks väg,55.999666,14.087932,1,,
9021012090441000,Vä Backstigen,55.995864,14.081914,1,,
9021012090442000,Vä Svabiska vägen,55.996009,14.078156,1,,
9021012090443000,Vä Ulahallsvägen,55.998407,14.078787,1,,
9021012090444000,Väskolan,55.999862,14.080726,1,,
9021012090446000,Östervång N,55.919637,13.979271,1,,
9021012090447000,Kristianstad Lingenässkolan,56.052970,14.144280,1,,
9021012090449000,Kristianstad Möllebacken,56.048406,14.215770,1,,
9021012090452000,Knutehusvägen,56.038648,14.365491,1,,
9021012090453000,Bäckaskog E22,56.041217,14.329002,1,,
9021012090456000,Vä Erik Menveds väg,55.998753,14.089399,1,,
9021012090458000,Vä Skärdalsvägen,56.003757,14.090091,1,,
9021012090460000,Kristianstad Stallgatan,56.025526,14.163585,1,,
9021012090461000,Kristianstad Sadelmakaregatan,56.024436,14.165428,1,,
9021012090462000,Hammarslund Fågelängsvägen,56.018560,14.202836,1,,
9021012090463000,Viby Hammarslundsvägen,56.021988,14.214386,1,,
9021012090464000,Viby Kvarnnäsvägen,56.018470,14.224410,1,,
9021012090465000,Viby Brötavägen,56.016031,14.233202,1,,
9021012090466000,Viby Långåkersvägen,56.012740,14.234330,1,,
9021012090467000,Viby Brushanevägen,56.011030,14.236163,1,,
9021012090468000,Viby Kyrka,56.010610,14.246233,1,,
9021012090469000,Viby Grylleängsvägen,56.017673,14.230200,1,,
9021012090471000,Härlöv Slättängsskolan,56.020334,14.124271,1,,
9021012090472000,Öllsjö Tävlingsgatan,56.009784,14.101047,1,,
9021012090473000,Öllsjö Runvägen,56.007487,14.099353,1,,
9021012090474000,Vä Bäckvägen,56.001476,14.092757,1,,
9021012090475000,Öllsjö Estrids väg,56.004192,14.096837,1,,
9021012090477000,Kristianstad Ällingavägen,56.046850,14.167574,1,,
9021012090480000,Östervång S,55.915094,13.986091,1,,
9021012090481000,Järnbäckavägen,55.802487,14.152497,1,,
9021012090482000,Gamla Folkskolan,55.797833,14.159105,1,,
9021012090483000,Folkestorpsvägen,55.788211,14.153724,1,,
9021012090484000,Kristianstad Stridsvagnsvägen,56.044230,14.148315,1,,
9021012090485000,Åhus Glashyttan,55.929245,14.292289,1,,
9021012090486000,Knutstorp,55.997258,13.860005,1,,
9021012090487000,Kristianstad Kinesiska Muren,56.040431,14.162471,1,,
9021012090488000,Kristianstad Utställningsvägen,56.043399,14.163436,1,,
9021012090489000,Kristianstad S:t Lukas Kapell,56.044561,14.164317,1,,
9021012090490000,Nosaby Fjälkingevägen,56.048153,14.201143,1,,
9021012090492000,Kristianstad Södra Idrottsplatsen,56.023973,14.163699,1,,
9021012090495000,Kristianstad Milnergatan,56.025021,14.160784,1,,
9021012090497000,Kristianstad Södra Långgatan,56.018814,14.140696,1,,
9021012090499000,Kristianstad Bokvägen,56.032801,14.168908,1,,
9021012090501000,G:a Arkelstorp,56.179138,14.270630,1,,
9021012090502000,Fjälkinge Kumlevägen,56.034252,14.267693,1,,
9021012090503000,Tollarp Önosgatan,55.931187,13.985784,1,,
9021012090504000,Färlöv Hamiltons väg,56.073034,14.087013,1,,
9021012090505000,Fjälkinge Fjällbacka,56.043704,14.275116,1,,
9021012090507000,Furuboda kursgård,55.844120,14.212835,1,,
9021012090508000,Yngsjö skolan,55.883633,14.229420,1,,
9021012950130000,Kristianstad NO 2,56.071058,14.371766,1,,
9021012950131000,Kristianstad NO 3,55.916621,14.249467,1,,
9021012950132000,Kristianstad NO 4,55.785776,14.087461,1,,
9021012950133000,Kristianstad NO 5,55.937387,14.144832,1,,
9021012950134000,Kristianstad NO 6,55.906767,13.895422,1,,
9021012950135000,Kristianstad NO 8,56.126509,14.161615,1,,
9021012950145000,Kristianstad NO 1,56.190956,14.339974,1,,
9021012950157000,Kristianstad NO 7,56.046842,13.966312,1,,
9021012007002000,Brånhult,56.432997,13.570257,1,,
9021012007008000,Köphult,56.414044,13.541145,1,,
9021012007012000,Markaryd Skulptörvägen,56.449207,13.597577,1,,
9021012007013000,Markaryd station,56.457915,13.593713,1,,
9021012007014000,Markaryd Backgatan,56.453088,13.595568,1,,
9021012007016000,Köphult Skogshyddan,56.420922,13.549359,1,,
9021012007022000,Älmhult station,56.551144,14.137404,1,,
9021012007023000,Älmhult Spångatan,56.539087,14.123823,1,,
9021012007024000,Älmhult IKEA CL Nord,56.535907,14.123151,1,,
9021012007025000,Älmhult Brandstationen,56.541014,14.128208,1,,
9021012007026000,Älmhult Södergatan,56.542331,14.128605,1,,
9021012007027000,Älmhult Wallingatan,56.541969,14.135726,1,,
9021012007028000,Skogshyddan,56.420079,13.626756,1,,
9021012007029000,S Århult,56.438079,13.610839,1,,
9021012007030000,Ulvaryd,56.443052,13.604049,1,,
9021012007031000,Älmhult IKEA CL Syd,56.532963,14.123964,1,,
9021012007032000,Älmhult Stålgatan,56.535792,14.132585,1,,
9021012007033000,Älmhult Ringcentralen,56.532414,14.131206,1,,
9021012007035000,Markaryd Verkstadsgatan,56.450917,13.588686,1,,
9021012007036000,Markaryd Fabriksgatan,56.453481,13.589867,1,,
9021012007037000,Markaryd Järnvägsgatan,56.455465,13.590822,1,,
9021012007038000,Älmhult Swewood,56.532496,14.137948,1,,
9021012007039000,Slätthult,56.522707,14.140084,1,,
9021012007040000,Älmhult Vaktgatan,56.542688,14.131093,1,,
9021012007041000,Älmhult Älmhults Bruk,56.544882,14.133257,1,,
9021012007042000,Älmhult Blåsippan,56.549886,14.129995,1,,
9021012007043000,Älmhult Haganässkolan,56.551718,14.157528,1,,
9021012007045000,Älmhult IKEA Värdshus,56.552226,14.131014,1,,
9021012007046000,Diö station,56.633353,14.214644,1,,
9021012007047000,Gemla station,56.870702,14.646156,1,,
9021012007048000,Vislanda station,56.787023,14.454757,1,,
9021012007051000,Alvesta,56.898753,14.557172,1,,
9021012007054000,Växjö,56.876530,14.806073,1,,
9021012007055000,Hovmantorp,56.785855,15.141479,1,,
9021012007056000,Lessebo,56.749923,15.259574,1,,
9021012006003000,Jönköping C,57.784341,14.162884,1,,
9021012006011000,Nässjö,57.652129,14.694460,1,,
9021012013046000,Kungsbacka,57.491155,12.079887,1,,
9021012061002000,Ålstorp 5,55.823036,12.940460,1,,
9021012061003000,Davidslid,55.823722,12.968487,1,,
9021012061004000,Ålstorp Älgvägen,55.818234,12.972861,1,,
9021012061005000,Ålstorp Rådjursvägen,55.812544,12.977072,1,,
9021012061006000,Furuhillsvägen,55.810144,12.979385,1,,
9021012061007000,Annero,55.806046,12.982873,1,,
9021012061008000,Hänkelstorp,55.800986,12.987499,1,,
9021012061009000,Hofterupsvägen,55.794931,12.993854,1,,
9021012061010000,Håkantorp,55.788748,13.001285,1,,
9021012061011000,Ekenäs,55.781897,13.006593,1,,
9021012061012000,Norrevång,55.776407,13.008995,1,,
9021012061013000,Marbäck,55.768523,13.011999,1,,
9021012061014000,Hofterup Klövervägen,55.795161,12.986628,1,,
9021012061015000,Hofterup Skönadalvägen,55.792876,12.966633,1,,
9021012061016000,Hofterup Fackelrosvägen,55.800165,12.970569,1,,
9021012061017000,Hofterup Skönadals C,55.807103,12.979605,1,,
9021012061018000,Löddeköpinge Mästarevägen,55.758057,12.997514,1,,
9021012061019000,Löddeköpinge Lantvägen,55.760900,12.994106,1,,
9021012061020000,Löddeköpinge Dösvägen,55.765982,12.994760,1,,
9021012061021000,Barsebäckshamn,55.756983,12.909886,1,,
9021012061022000,Sjöbo Skola,55.758674,12.917553,1,,
9021012061023000,BarsebäckStrand,55.770476,12.928842,1,,
9021012061024000,Furulund Centrum,55.776144,13.097079,1,,
9021012061025000,Barsebäck k:a,55.770360,12.956635,1,,
9021012061026000,Barsebäck Löddevägen,55.770961,12.960831,1,,
9021012061029000,Löddeköpinge Snickarevägen,55.757731,13.002908,1,,
9021012061030000,Löddeköpinge centrum,55.758152,13.006367,1,,
9021012061031000,Löddeköpinge k:a,55.759927,13.021204,1,,
9021012061032000,Fridsbo,55.761616,13.029960,1,,
9021012061033000,Högs Byväg,55.766461,13.049586,1,,
9021012061034000,Hög k:a,55.766872,13.050688,1,,
9021012061035000,Högs mölla,55.780373,13.066556,1,,
9021012061036000,Ö Hög,55.782419,13.072088,1,,
9021012061037000,St Harrie,55.802811,13.155113,1,,
9021012061038000,Kävlinge Annelund,55.791356,13.103996,1,,
9021012061039000,Kävlinge Kvarngatan,55.789863,13.105168,1,,
9021012061040000,Kävlinge Golfbana,55.795143,13.147021,1,,
9021012061041000,Furulund Korsgatan,55.775876,13.100429,1,,
9021012061042000,Furulunds station,55.775847,13.095824,1,,
9021012061043000,Furulund Trädgårdsgatan,55.774186,13.089786,1,,
9021012061044000,Stävie Kronovägen,55.772411,13.085127,1,,
9021012061045000,Stävie Häradsvägen,55.770451,13.085440,1,,
9021012061046000,Lackalänga k:a,55.773400,13.106324,1,,
9021012061047000,Hofterup Lundåkravägen,55.792510,12.967489,1,,
9021012061048000,Kävlinge vårdcentral,55.789992,13.112288,1,,
9021012061049000,Kävlinge Kullagården,55.791301,13.120762,1,,
9021012061050000,Kävlinge Rinnebäcksgatan,55.792749,13.127392,1,,
9021012061051000,Rinnebäck V Infartsgatan,55.793743,13.132619,1,,
9021012061052000,Rinnebäck Fabriksgatan,55.794467,13.139045,1,,
9021012061053000,Rinnebäck Ö Infartsgatan,55.794660,13.142174,1,,
9021012061054000,Åboda,55.797178,13.150551,1,,
9021012061055000,Krutmöllan,55.796806,13.178840,1,,
9021012061056000,L Harrievägen,55.795180,13.202905,1,,
9021012061057000,L Harrie Skolhusvägen,55.793730,13.203991,1,,
9021012061058000,St Harrie 15,55.798219,13.169270,1,,
9021012061065000,Dösjebro station,55.823084,13.031853,1,,
9021012061066000,Krångeltofta,55.827578,13.033114,1,,
9021012061067000,Löddeköpinge Alabasterv,55.766142,13.008424,1,,
9021012061068000,Löddeköpinge Brynjevägen,55.765973,12.998682,1,,
9021012061069000,Löddeköpinge Vårdcentral,55.759855,13.016476,1,,
9021012061070000,Löddeköpinge Vikhögsvägen,55.758855,13.015161,1,,
9021012061071000,Kävlinge Floravägen,55.789380,13.090610,1,,
9021012061072000,Kävlinge Inspektorsgatan,55.790514,13.098409,1,,
9021012061073000,Kävlinge V Långgatan,55.794380,13.118157,1,,
9021012061079000,Kävlinge station,55.794590,13.111332,1,,
9021012061087000,Löddeköpinge Center Syd,55.770175,12.990665,1,,
9021012061088000,Löddeköpinge Varuvägen,55.767784,12.992590,1,,
9021012061089000,Löddeköpinge Skördevägen,55.764720,12.991042,1,,
9021012061092000,Steninge,55.762070,12.933271,1,,
9021012950026000,Kävlinge NO 1,55.804891,13.002277,1,,
9021012950027000,Kävlinge NO 2,55.819840,13.133207,1,,
9021012950028000,Kävlinge NO 3,55.756870,13.096663,1,,
9021012082000000,Landskrona Station,55.879012,12.856617,1,,
9021012082001000,Landskrona Skeppsbron,55.865802,12.826761,1,,
9021012082002000,Landskrona Spegelgatan,55.897930,12.822458,1,,
9021012082003000,Landskrona Kalasgatan,55.895386,12.824652,1,,
9021012082004000,Landskrona Skogsmusgården,55.891989,12.824625,1,,
9021012082005000,Landskrona Varvsvägen,55.863692,12.835759,1,,
9021012082006000,Landskrona Sofia Albertina k:a,55.867997,12.827600,1,,
9021012082008000,Landskrona Rådhustorget,55.870254,12.829553,1,,
9021012082009000,Landskrona Säbygatan,55.874634,12.831551,1,,
9021012082011000,Landskrona Vilan,55.878299,12.834116,1,,
9021012082013000,Landskrona Carl XI:s väg,55.881852,12.832006,1,,
9021012082014000,Landskrona Samhall,55.868057,12.836417,1,,
9021012082015000,Landskrona Ringvägen,55.885501,12.832062,1,,
9021012082016000,Hilleshög Fabriken,55.896522,12.826628,1,,
9021012082017000,Hägnalövsvägen,55.958010,12.793310,1,,
9021012082019000,Landskrona Säbyholm,55.902610,12.823874,1,,
9021012082020000,Landskrona Brohusen,55.908571,12.821400,1,,
9021012082021000,Hildesborg,55.918959,12.816233,1,,
9021012082023000,Glumslöv Vikingaleden,55.937105,12.816387,1,,
9021012082025000,Glumslöv Krokstorpsvägen,55.942187,12.812152,1,,
